start_station,start_lat,start_lng,end_station,end_lat,end_lng,Service:Company,Service:Type,route_count
Rotterdam Centraal,51.92499923706,4.468888759613,Gouda,52.017501831055,4.7044444084167,NS,Snelbus ipv trein,8
Nijverdal,52.366111,6.462,Zwolle,52.504722595215,6.0919442176819,Blauwnet,Snelbus ipv trein,30
Utrecht Centraal,52.088890075684,5.1102776527405,Den Haag Centraal,52.080276489258,4.3249998092651,NS,Snelbus ipv trein,1
Enkhuizen,52.699165344238,5.286388874054,Boxtel,51.58433,5.31912,NS,Intercity,93
Den Haag Laan v NOI,52.078609466553,4.3427777290344,Den Haag Centraal,52.080276489258,4.3249998092651,NS,Extra trein,1
Dieren,52.044998168945,6.1030554771423,Arnhem Centraal,51.985000610352,5.8991665840149,NS,Stopbus ipv trein,122
Culemborg,51.946666717529,5.2269444465637,Utrecht Centraal,52.088890075684,5.1102776527405,NS,Intercity,2
Lage Zwaluwe,51.69111251831,4.6630554199219,Roosendaal,51.540279388428,4.4583334922791,NS,Sprinter,51
Groningen Europapark,53.20480027,6.5854178,Groningen,53.210556030273,6.5647220611572,NS,Intercity,2
Utrecht Centraal,52.088890075684,5.1102776527405,Geldermalsen,51.88301,5.27127,NS,Extra trein,1
Roodeschool,53.421262,6.7587,Uithuizermeeden,53.4145845,6.7202975,Arriva,Stopbus ipv trein,1
Beilen,52.854721069336,6.5211110115051,Zwolle,52.504722595215,6.0919442176819,NS,Intercity,3
Apeldoorn,52.209167480469,5.9702777862549,Amersfoort Centraal,52.153888702393,5.3705554008484,NS,Extra trein,1
Roermond,51.193054199219,5.9941668510437,Hoorn,52.644721984863,5.0555553436279,NS,Intercity,1
Utrecht Maliebaan,52.087776184082,5.1313886642456,Utrecht Centraal,52.088890075684,5.1102776527405,NS,Sprinter,142
Schiphol Airport,52.30944442749,4.7619442939758,Den Haag Centraal,52.080276489258,4.3249998092651,NS,Intercity,413
Leiden Centraal,52.166110992432,4.4816665649414,Lelystad Centrum,52.507778167725,5.4727778434753,NS,Sprinter,295
Zwolle,52.504722595215,6.0919442176819,Schiphol Airport,52.30944442749,4.7619442939758,NS,Intercity,30
Rijswijk,52.039722442627,4.3191666603088,Den Haag Centraal,52.080276489258,4.3249998092651,NS,Intercity,1
Tilburg,51.560554504395,5.0836110115051,Roosendaal,51.540279388428,4.4583334922791,NS,Stopbus ipv trein,3
Den Helder,52.955276489258,4.7611112594605,Maarn,52.064167022705,5.3699998855591,NS,Intercity,1
Delft Campus,51.990833282471,4.3647222518921,Den Haag Centraal,52.080276489258,4.3249998092651,NS,Sprinter,1501
Amsterdam Centraal,52.378887176514,4.9002776145935,Heerhugowaard,52.669723510742,4.8227777481079,NS,Sprinter,327
Almelo,52.358055114746,6.6538887023926,Deventer,52.257499694824,6.1605553627014,NS,Sprinter,1133
Putten,52.264999389648,5.5752778053284,Amsterdam Centraal,52.378887176514,4.9002776145935,NS,Sprinter,9
Amsterdam Centraal,52.378887176514,4.9002776145935,Utrecht Centraal,52.088890075684,5.1102776527405,NS,Sprinter,811
Oss,51.765556335449,5.5322222709656,Venlo,51.363609313965,6.1727776527405,NS,Sprinter,2
Zaandam,52.438888549805,4.8136110305786,Schiphol Airport,52.30944442749,4.7619442939758,NS,Stopbus ipv trein,1
Amsterdam Centraal,52.378887176514,4.9002776145935,Amsterdam Amstel,52.346668243408,4.9177780151367,NS,Metro ipv trein,779
Amsterdam Holendrecht,52.29844,4.95972,Utrecht Centraal,52.088890075684,5.1102776527405,NS,Stopbus ipv trein,42
Enschede,52.222499847412,6.8899998664856,Den Dolder,52.140277862549,5.2427778244019,NS,Intercity,2
Groningen,53.210556030273,6.5647220611572,Hoogeveen,52.733890533447,6.4736108779907,NS,Intercity,37
Assen,52.991664886475,6.5708332061768,Groningen,53.210556030273,6.5647220611572,NS,Extra trein,6
't Harde,52.4091682,5.893611,Amersfoort Centraal,52.153888702393,5.3705554008484,NS,Extra trein,1
Den Haag HS,52.069721221924,4.3225002288818,Leiden Centraal,52.166110992432,4.4816665649414,NS,Intercity,16
Breda,51.595554351807,4.7800002098083,Zwolle,52.504722595215,6.0919442176819,NS,Intercity,177
Lelystad Centrum,52.507778167725,5.4727778434753,Leeuwarden,53.195835113525,5.7922220230103,NS,Intercity,1
Hilversum,52.225833892822,5.1819443702698,Almere Centrum,52.37503,5.21764,NS,Stopbus ipv trein,2
Geldermalsen,51.88301,5.27127,Schiphol Airport,52.30944442749,4.7619442939758,NS,Intercity,4
Hoorn,52.644721984863,5.0555553436279,'s-Hertogenbosch,51.69048,5.29362,NS,Intercity,19
Boxtel,51.58433,5.31912,Vught,51.655555725098,5.2919445037842,NS,Extra trein,1
Amsterdam Centraal,52.378887176514,4.9002776145935,Lelystad Centrum,52.507778167725,5.4727778434753,NS,Intercity,139
Leiden Centraal,52.166110992432,4.4816665649414,Amersfoort Vathorst,52.192779541016,5.4338889122009,NS,Sprinter,45
Den Helder,52.955276489258,4.7611112594605,Alkmaar,52.63777923584,4.7397222518921,NS,Snelbus ipv trein,2
Amsterdam Centraal,52.378887176514,4.9002776145935,Amsterdam Lelylaan,52.357776641846,4.8338890075684,NS,Intercity direct,1
Wierden,52.361389160156,6.5916666984558,Zwolle,52.504722595215,6.0919442176819,Blauwnet,Intercity,14
Den Haag Centraal,52.080276489258,4.3249998092651,Eindhoven Centraal,51.443332672119,5.4813890457153,NS,Intercity,8454
Ermelo,52.301666259766,5.6147222518921,Zwolle,52.504722595215,6.0919442176819,NS,Extra trein,1
Woerden,52.084999084473,4.8936109542847,'s-Hertogenbosch,51.69048,5.29362,NS,Sprinter,313
Weert,51.248611450195,5.7036108970642,Maastricht,50.850276947021,5.7055554389954,NS,Intercity,69
Assen,52.991664886475,6.5708332061768,Haren,53.176109313965,6.6172223091125,NS,Intercity,28
Susteren,51.061389923096,5.8630557060242,Sittard,51.001667022705,5.8586111068726,NS,Intercity,1
Heerenveen,52.961387634277,5.9141664505005,Leeuwarden,53.195835113525,5.7922220230103,NS,Intercity,1
Bodegraven,52.081390380859,4.7461109161377,Leiden Centraal,52.166110992432,4.4816665649414,NS,Stopbus ipv trein,1
Bergen op Zoom,51.49388885498,4.2961111068726,Breda,51.595554351807,4.7800002098083,NS,Intercity,35
Hilversum,52.225833892822,5.1819443702698,Enschede,52.222499847412,6.8899998664856,NS,Extra trein,1
Hoogkarspel,52.69055557251,5.1838889122009,Purmerend Overwhere,52.511390686035,4.9683332443237,NS,Stopbus ipv trein,53
Utrecht Centraal,52.088890075684,5.1102776527405,Den Haag HS,52.069721221924,4.3225002288818,NS,Intercity,164
Amsterdam Centraal,52.378887176514,4.9002776145935,Amsterdam Bijlmer ArenA,52.3122215271,4.9469442367554,NS,Sprinter,4
Roosendaal,51.540279388428,4.4583334922791,Breda,51.595554351807,4.7800002098083,NS,Sprinter,259
Amsterdam Bijlmer ArenA,52.3122215271,4.9469442367554,Utrecht Centraal,52.088890075684,5.1102776527405,NS,Snelbus ipv trein,1
Amsterdam Bijlmer ArenA,52.3122215271,4.9469442367554,Amsterdam Centraal,52.378887176514,4.9002776145935,NS,Intercity,11
Amersfoort Schothorst,52.174822137451,5.4038887023926,Duivendrecht,52.323333740234,4.9363889694214,NS,Intercity,1
Vlissingen,51.445835113525,3.5952777862549,Goes,51.498054504395,3.8905556201935,NS,Intercity,12
Zwolle,52.504722595215,6.0919442176819,Dronten,52.5344,5.72089,NS,Snelbus ipv trein,2
Maastricht,50.850276947021,5.7055554389954,Roermond,51.193054199219,5.9941668510437,NS,Intercity,232
Zevenaar,51.923053741455,6.0719442367554,Arnhem Centraal,51.985000610352,5.8991665840149,Arriva,Stopbus ipv trein,45
Enkhuizen,52.699165344238,5.286388874054,Zaandam Kogerveld,52.456665039062,4.8202776908875,NS,Intercity,1
Zwolle,52.504722595215,6.0919442176819,Deventer,52.257499694824,6.1605553627014,NS,Snelbus ipv trein,538
Amersfoort Centraal,52.153888702393,5.3705554008484,Utrecht Centraal,52.088890075684,5.1102776527405,NS,Intercity,243
Amersfoort Centraal,52.153888702393,5.3705554008484,Rotterdam Centraal,51.92499923706,4.468888759613,NS,Intercity direct,16
Schagen,52.784442901611,4.8052778244019,Alkmaar,52.63777923584,4.7397222518921,NS,Intercity,4
Amersfoort Centraal,52.153888702393,5.3705554008484,Deventer,52.257499694824,6.1605553627014,NS,Intercity,247
Almelo,52.358055114746,6.6538887023926,Mariënberg,52.50944519043,6.5752778053284,Blauwnet,Stoptrein,754
Assen,52.991664886475,6.5708332061768,Groningen Europapark,53.20480027,6.5854178,NS,Sprinter,5
's-Hertogenbosch,51.69048,5.29362,Tilburg,51.560554504395,5.0836110115051,NS,Stopbus ipv trein,9
Voorhout,52.224445343018,4.4844446182251,Haarlem,52.38777923584,4.6383333206177,NS,Intercity,2
Eindhoven Centraal,51.443332672119,5.4813890457153,Rotterdam Centraal,51.92499923706,4.468888759613,NS,Intercity direct,99
Zwolle,52.504722595215,6.0919442176819,Rotterdam Centraal,51.92499923706,4.468888759613,NS,Intercity,281
Leiden Centraal,52.166110992432,4.4816665649414,Schiphol Airport,52.30944442749,4.7619442939758,NS,Intercity,31
Rhenen,51.958610534668,5.5783333778381,Driebergen-Zeist,52.065277099609,5.25861120224,NS,Snelbus ipv trein,2
Barendrecht,51.854721069336,4.5533332824707,Dordrecht,51.807220458984,4.668333530426,NS,Intercity,1
Haarlem,52.38777923584,4.6383333206177,Leiden Centraal,52.166110992432,4.4816665649414,NS,Stopbus ipv trein,288
Venlo,51.363609313965,6.1727776527405,Mook-Molenhoek,51.766262,5.879133,Arriva,Stoptrein,18
Mook-Molenhoek,51.766262,5.879133,Venlo,51.363609313965,6.1727776527405,Arriva,Stoptrein,12
Roosendaal,51.540279388428,4.4583334922791,Vlissingen,51.445835113525,3.5952777862549,NS,Extra trein,2
Arnhem Centraal,51.985000610352,5.8991665840149,Amsterdam Bijlmer ArenA,52.3122215271,4.9469442367554,NS,Intercity,32
Apeldoorn,52.209167480469,5.9702777862549,Enschede,52.222499847412,6.8899998664856,NS,Snelbus ipv trein,1
Deventer,52.257499694824,6.1605553627014,Amsterdam Centraal,52.378887176514,4.9002776145935,NS,Intercity,2774
Groningen,53.210556030273,6.5647220611572,Winschoten,53.1392377,7.035101,Arriva,Snelbus ipv trein,75
Amersfoort Centraal,52.153888702393,5.3705554008484,Baarn,52.208332061768,5.2808332443237,NS,Stopbus ipv trein,1414
Roodeschool,53.421262,6.7587,Groningen,53.210556030273,6.5647220611572,Arriva,Stoptrein,8658
Velp,51.994720458984,5.9802780151367,Arnhem Centraal,51.985000610352,5.8991665840149,NS,Intercity,1
Sneek,53.0328688,5.6523969,Leeuwarden,53.195835113525,5.7922220230103,Arriva,Stoptrein,3459
Venlo,51.363609313965,6.1727776527405,Nijmegen,51.843612670898,5.8522224426269,Arriva,Snelbus ipv trein,122
Weesp,52.3127784729,5.0430555343628,Amersfoort Centraal,52.153888702393,5.3705554008484,NS,Sprinter,25
Nunspeet,52.370834350586,5.7852778434753,Utrecht Centraal,52.088890075684,5.1102776527405,NS,Intercity,1
Rotterdam Centraal,51.92499923706,4.468888759613,Gouda,52.017501831055,4.7044444084167,NS,Intercity,85
Alkmaar,52.63777923584,4.7397222518921,Schagen,52.784442901611,4.8052778244019,NS,Snelbus ipv trein,26
Schiphol Airport,52.30944442749,4.7619442939758,Groningen Europapark,53.20480027,6.5854178,NS,Intercity,1
Tilburg,51.560554504395,5.0836110115051,'s-Hertogenbosch,51.69048,5.29362,NS,Snelbus ipv trein,864
Delft,52.00666809082,4.3563890457153,Den Haag Centraal,52.080276489258,4.3249998092651,NS,Extra trein,1
Hillegom,52.302501678467,4.5655555725098,Leiden Centraal,52.166110992432,4.4816665649414,NS,Intercity,1
Nieuwerkerk a/d IJssel,51.965278625488,4.6169443130493,Rotterdam Centraal,51.92499923706,4.468888759613,NS,Sprinter,73
Den Haag Mariahoeve,52.090557098389,4.3694443702698,Dordrecht,51.807220458984,4.668333530426,NS,Sprinter,31
Groningen,53.210556030273,6.5647220611572,Hurdegaryp,53.2187783,5.934543,Arriva,Stoptrein,181
Tilburg,51.560554504395,5.0836110115051,Eindhoven Centraal,51.443332672119,5.4813890457153,NS,Intercity,241
Den Haag Centraal,52.080276489258,4.3249998092651,Hoogeveen,52.733890533447,6.4736108779907,NS,Intercity,18
Maarheeze,51.304986,5.629796,Weert,51.248611450195,5.7036108970642,NS,Intercity,1
Den Haag Centraal,52.080276489258,4.3249998092651,Den Haag Mariahoeve,52.090557098389,4.3694443702698,NS,Sprinter,10
Rijswijk,52.039722442627,4.3191666603088,Den Haag HS,52.069721221924,4.3225002288818,NS,Intercity,1
Breda,51.595554351807,4.7800002098083,Bergen op Zoom,51.49388885498,4.2961111068726,NS,Intercity,36
Enkhuizen,52.699165344238,5.286388874054,Purmerend Overwhere,52.511390686035,4.9683332443237,NS,Snelbus ipv trein,12
Geldermalsen,51.88301,5.27127,Hardinxveld-Giessendam,51.830554962158,4.8358335494995,R-net,Stopbus ipv trein,18
Arnemuiden,51.501667022705,3.6691665649414,Middelburg,51.494720458984,3.6172223091126,NS,Taxibus ipv trein,76
't Harde,52.4091682,5.893611,Utrecht Centraal,52.088890075684,5.1102776527405,NS,Sprinter,186
Nijmegen,51.843612670898,5.8522224426269,Wijchen,51.811668395996,5.730833530426,NS,Snelbus ipv trein,1
Blerick,51.372501373291,6.1550002098083,Nijmegen,51.843612670898,5.8522224426269,Arriva,Stoptrein,191
Tilburg,51.560554504395,5.0836110115051,Gilze-Rijen,51.583610534668,4.9261112213135,NS,Stopbus ipv trein,1
Apeldoorn,52.209167480469,5.9702777862549,Enschede,52.222499847412,6.8899998664856,NS,Extra trein,1
Purmerend,52.50305557251,4.9536108970642,Schiphol Airport,52.30944442749,4.7619442939758,NS,Stopbus ipv trein,1
Arnhem Centraal,51.985000610352,5.8991665840149,Roosendaal,51.540279388428,4.4583334922791,NS,Intercity,415
Delft Campus,51.990833282471,4.3647222518921,Rotterdam Centraal,51.92499923706,4.468888759613,NS,Extra trein,7
Rotterdam Centraal,51.92499923706,4.468888759613,Den Haag Centraal,52.080276489258,4.3249998092651,NS,Intercity,141
Woerden,52.084999084473,4.8936109542847,Leiden Centraal,52.166110992432,4.4816665649414,NS,Stopbus ipv trein,11
Hoofddorp,52.293334960938,4.7005553245544,Leiden Centraal,52.166110992432,4.4816665649414,NS,Stopbus ipv trein,124
Ede-Wageningen,52.027778625488,5.6730556488037,Arnhem Centraal,51.985000610352,5.8991665840149,NS,Sprinter,10317
Tilburg Universiteit,51.564985,5.051778,Zutphen,52.145278930664,6.1941666603088,NS,Intercity,1
Apeldoorn,52.209167480469,5.9702777862549,Enschede,52.222499847412,6.8899998664856,NS,Sprinter,1975
Leiden Centraal,52.166110992432,4.4816665649414,Rotterdam Centraal,51.92499923706,4.468888759613,NS,Intercity,16
Tilburg,51.560554504395,5.0836110115051,Amsterdam Centraal,52.378887176514,4.9002776145935,NS,Intercity direct,133
Eindhoven Centraal,51.443332672119,5.4813890457153,'s-Hertogenbosch,51.69048,5.29362,NS,Sprinter,1058
Amersfoort Centraal,52.153888702393,5.3705554008484,Apeldoorn,52.209167480469,5.9702777862549,NS,Intercity,3
Zwolle,52.504722595215,6.0919442176819,Nijverdal,52.366111,6.462,Blauwnet,Intercity,132
Deventer,52.257499694824,6.1605553627014,Amersfoort Centraal,52.153888702393,5.3705554008484,NS,Intercity,247
Tiel,51.889446258545,5.4222221374512,Gouda,52.017501831055,4.7044444084167,NS,Sprinter,114
Groningen Europapark,53.20480027,6.5854178,Winschoten,53.1392377,7.035101,Arriva,Stoptrein,9
Almelo,52.358055114746,6.6538887023926,Mariënberg,52.50944519043,6.5752778053284,Arriva,Stopbus ipv trein,39
Gouda,52.017501831055,4.7044444084167,Rotterdam Centraal,51.92499923706,4.468888759613,NS,Intercity,81
Zaandam,52.438888549805,4.8136110305786,Hoorn Kersenboogerd,52.653610229492,5.0855555534363,NS,Intercity,2
Winschoten,53.1392377,7.035101,Groningen Europapark,53.20480027,6.5854178,Arriva,Stoptrein,28
Woerden,52.084999084473,4.8936109542847,Zaandam,52.438888549805,4.8136110305786,NS,Sprinter,68
Rilland-Bath,51.422779083252,4.1611108779907,Kruiningen-Yerseke,51.465000152588,4.0372223854065,NS,Extra trein,1
Deurne,51.455833435059,5.7888889312744,Eindhoven Centraal,51.443332672119,5.4813890457153,NS,Intercity,1
Amsterdam Centraal,52.378887176514,4.9002776145935,Amsterdam Amstel,52.346668243408,4.9177780151367,NS,Stopbus ipv trein,262
Rotterdam Centraal,51.92499923706,4.468888759613,Amsterdam Centraal,52.378887176514,4.9002776145935,NS,Sprinter,521
Alkmaar,52.63777923584,4.7397222518921,Hoorn,52.644721984863,5.0555553436279,NS,Sprinter,258
Schagen,52.784442901611,4.8052778244019,Alkmaar,52.63777923584,4.7397222518921,NS,Stopbus ipv trein,3
Zaandam,52.438888549805,4.8136110305786,Den Haag Centraal,52.080276489258,4.3249998092651,NS,Intercity,29
Amsterdam Centraal,52.378887176514,4.9002776145935,Amsterdam Zuid,52.338889,4.872356,NS,Snelbus ipv trein,45
Dordrecht,51.807220458984,4.668333530426,Lage Zwaluwe,51.69111251831,4.6630554199219,NS,Sprinter,10
Amsterdam Centraal,52.378887176514,4.9002776145935,Weesp,52.3127784729,5.0430555343628,NS Int,ICE International,1
Amsterdam Centraal,52.378887176514,4.9002776145935,Purmerend Overwhere,52.511390686035,4.9683332443237,NS,Sprinter,3
Amersfoort Centraal,52.153888702393,5.3705554008484,Baarn,52.208332061768,5.2808332443237,NS,Intercity,1
Maastricht Randwyck,50.838611602783,5.7172222137451,Valkenburg,50.869720458984,5.8322219848633,Arriva,Stopbus ipv trein,12
Zaandam,52.438888549805,4.8136110305786,Enkhuizen,52.699165344238,5.286388874054,NS,Snelbus ipv trein,4
Rotterdam Centraal,51.92499923706,4.468888759613,Zaandam,52.438888549805,4.8136110305786,NS,Sprinter,73
Winterswijk,51.9677307,6.7155181,Apeldoorn,52.209167480469,5.9702777862549,Arriva,Stoptrein,257
Den Haag Mariahoeve,52.090557098389,4.3694443702698,Dordrecht,51.807220458984,4.668333530426,NS,Intercity,77
Bilthoven,52.130001068115,5.2038888931274,Amersfoort Centraal,52.153888702393,5.3705554008484,NS,Intercity,1
Utrecht Centraal,52.088890075684,5.1102776527405,Apeldoorn,52.209167480469,5.9702777862549,NS,Intercity,3
Den Helder,52.955276489258,4.7611112594605,Alkmaar,52.63777923584,4.7397222518921,NS,Sprinter,3
Zwolle,52.504722595215,6.0919442176819,Arnhem Presikhaaf,51.988056182861,5.9438886642456,NS,Intercity,1
Enschede,52.222499847412,6.8899998664856,Zoetermeer Oost,52.046390533447,4.4927778244019,NS,Intercity,1
Nijmegen,51.843612670898,5.8522224426269,Hilversum,52.225833892822,5.1819443702698,NS,Intercity,2
Gouda,52.017501831055,4.7044444084167,Alphen a/d Rijn,52.124443054199,4.6577777862549,NS,Snelbus ipv trein,4
Leeuwarden,53.195835113525,5.7922220230103,Bilthoven,52.130001068115,5.2038888931274,NS,Intercity,1
Hoofddorp,52.293334960938,4.7005553245544,Amsterdam Bijlmer ArenA,52.3122215271,4.9469442367554,NS,Sprinter,27
Wolvega,52.880832672119,6.0036110877991,Leeuwarden,53.195835113525,5.7922220230103,NS Int,Eurostar,1
Rotterdam Centraal,51.92499923706,4.468888759613,Den Haag HS,52.069721221924,4.3225002288818,NS,Sprinter,6
Zwolle,52.504722595215,6.0919442176819,Kampen Zuid,52.5331,5.91309,NS,Stopbus ipv trein,106
Amsterdam Centraal,52.378887176514,4.9002776145935,Maarssen,52.135276794434,5.0336112976074,NS,Sprinter,33
Olst,52.334720611572,6.1130557060242,Deventer,52.257499694824,6.1605553627014,NS,Snelbus ipv trein,18
Alkmaar,52.63777923584,4.7397222518921,Zwolle,52.504722595215,6.0919442176819,NS,Stopbus ipv trein,2
Vlissingen,51.445835113525,3.5952777862549,Zwolle,52.504722595215,6.0919442176819,NS,Intercity,551
Rotterdam Centraal,51.92499923706,4.468888759613,Wolvega,52.880832672119,6.0036110877991,NS,Intercity,17
Dordrecht,51.807220458984,4.668333530426,Haarlem,52.38777923584,4.6383333206177,NS,Intercity,4
Almere Oostvaarders,52.403331756592,5.3005557060242,Den Haag Mariahoeve,52.090557098389,4.3694443702698,NS,Sprinter,57
Weesp,52.3127784729,5.0430555343628,Hilversum,52.225833892822,5.1819443702698,NS,Sprinter,2
Lage Zwaluwe,51.69111251831,4.6630554199219,Breda,51.595554351807,4.7800002098083,NS,Extra trein,1
Dronten,52.5344,5.72089,Leeuwarden,53.195835113525,5.7922220230103,NS,Sprinter,1
Eindhoven Centraal,51.443332672119,5.4813890457153,Susteren,51.061389923096,5.8630557060242,NS,Intercity,1
Schiphol Airport,52.30944442749,4.7619442939758,Lelystad Centrum,52.507778167725,5.4727778434753,NS,Sprinter,19
Leeuwarden,53.195835113525,5.7922220230103,Akkrum,53.046390533447,5.843611240387,NS,Intercity,1
Hoorn,52.644721984863,5.0555553436279,Den Haag Centraal,52.080276489258,4.3249998092651,NS,Sprinter,301
Dordrecht,51.807220458984,4.668333530426,Sliedrecht,51.829723358154,4.7783331871033,R-net,Stopbus ipv trein,12
Uitgeest,52.521667480469,4.7016668319702,Haarlem,52.38777923584,4.6383333206177,NS,Sprinter,8
Lage Zwaluwe,51.69111251831,4.6630554199219,Nijmegen,51.843612670898,5.8522224426269,NS,Sprinter,125
Roosendaal,51.540279388428,4.4583334922791,Bergen op Zoom,51.49388885498,4.2961111068726,NS,Extra trein,1
Lelystad Centrum,52.507778167725,5.4727778434753,Amsterdam RAI,52.337223052979,4.8902778625488,NS,Sprinter,464
Apeldoorn,52.209167480469,5.9702777862549,Rijssen,52.3122215271,6.5202779769897,NS,Sprinter,1
Bergen op Zoom,51.49388885498,4.2961111068726,Vlissingen,51.445835113525,3.5952777862549,NS,Intercity,1
Hoorn Kersenboogerd,52.653610229492,5.0855555534363,Hoofddorp,52.293334960938,4.7005553245544,NS,Sprinter,2030
Harderwijk,52.337501525879,5.619722366333,Zwolle,52.504722595215,6.0919442176819,NS,Stopbus ipv trein,137
Roosendaal,51.540279388428,4.4583334922791,Lage Zwaluwe,51.69111251831,4.6630554199219,NS,Stopbus ipv trein,573
Hoensbroek,50.905555725098,5.9305553436279,Heerlen,50.89083480835,5.9749999046326,Arriva,Extra trein,1
Hoofddorp,52.293334960938,4.7005553245544,Uitgeest,52.521667480469,4.7016668319702,NS,Sprinter,2
Utrecht Centraal,52.088890075684,5.1102776527405,Bodegraven,52.081390380859,4.7461109161377,NS,Sprinter,32
Almere Centrum,52.37503,5.21764,Vlissingen,51.445835113525,3.5952777862549,NS,Intercity,174
Den Haag HS,52.069721221924,4.3225002288818,Amsterdam Centraal,52.378887176514,4.9002776145935,NS,Intercity,687
Tilburg,51.560554504395,5.0836110115051,'s-Hertogenbosch,51.69048,5.29362,NS,Sprinter,19
Venlo,51.363609313965,6.1727776527405,Schiphol Airport,52.30944442749,4.7619442939758,NS,Intercity,2426
Amsterdam Centraal,52.378887176514,4.9002776145935,Hoofddorp,52.293334960938,4.7005553245544,NS,Intercity,22
Amsterdam Centraal,52.378887176514,4.9002776145935,Rotterdam Centraal,51.92499923706,4.468888759613,NS,Intercity direct,8675
Weesp,52.3127784729,5.0430555343628,Utrecht Overvecht,52.110000610352,5.1247220039368,NS,Stopbus ipv trein,304
Zwolle,52.504722595215,6.0919442176819,Hoofddorp,52.293334960938,4.7005553245544,NS,Intercity,4
Amersfoort Centraal,52.153888702393,5.3705554008484,Amersfoort Vathorst,52.192779541016,5.4338889122009,NS,Sprinter,12
Amsterdam Centraal,52.378887176514,4.9002776145935,Utrecht Centraal,52.088890075684,5.1102776527405,NS,Intercity,467
Leiden Centraal,52.166110992432,4.4816665649414,Hoofddorp,52.293334960938,4.7005553245544,NS,Sprinter,39
Rotterdam Centraal,51.92499923706,4.468888759613,Den Dolder,52.140277862549,5.2427778244019,NS,Intercity,1
Hoorn,52.644721984863,5.0555553436279,Hoorn Kersenboogerd,52.653610229492,5.0855555534363,NS,Stopbus ipv trein,648
Utrecht Centraal,52.088890075684,5.1102776527405,Duivendrecht,52.323333740234,4.9363889694214,NS,Sprinter,28
Heerlen,50.89083480835,5.9749999046326,Uitgeest,52.521667480469,4.7016668319702,NS,Intercity,3
Woerden,52.084999084473,4.8936109542847,Den Haag Ypenburg,52.055278778076,4.39222240448,NS,Stopbus ipv trein,195
Hoofddorp,52.293334960938,4.7005553245544,Schiphol Airport,52.30944442749,4.7619442939758,NS,Intercity,4
Hardenberg,52.572776794434,6.6286110877991,Emmen,52.790000915527,6.8994445800781,Blauwnet,Stopbus ipv trein,10
Rotterdam Centraal,51.92499923706,4.468888759613,Nijmegen,51.843612670898,5.8522224426269,NS,Sprinter,29
Driebergen-Zeist,52.065277099609,5.25861120224,Rotterdam Centraal,51.92499923706,4.468888759613,NS,Intercity,321
Enkhuizen,52.699165344238,5.286388874054,Culemborg,51.946666717529,5.2269444465637,NS,Intercity,1
Zutphen,52.145278930664,6.1941666603088,Goor,52.230278015137,6.5844445228577,Blauwnet,Stopbus ipv trein,2
Amsterdam Sloterdijk,52.388889312744,4.8377776145935,Vlissingen,51.445835113525,3.5952777862549,NS,Intercity,70
Amsterdam Muiderpoort,52.360553741455,4.9311113357544,Weesp,52.3127784729,5.0430555343628,NS,Sprinter,2
Amsterdam Zuid,52.338889,4.872356,Amsterdam Sloterdijk,52.388889312744,4.8377776145935,NS,Metro ipv trein,2140
Groningen,53.210556030273,6.5647220611572,Roodeschool,53.421262,6.7587,Arriva,Stopbus ipv trein,82
Amsterdam Centraal,52.378887176514,4.9002776145935,Zwolle,52.504722595215,6.0919442176819,NS,Intercity,49
Amsterdam Sloterdijk,52.388889312744,4.8377776145935,Amsterdam Bijlmer ArenA,52.3122215271,4.9469442367554,NS,Metro ipv trein,160
's-Hertogenbosch,51.69048,5.29362,Geldermalsen,51.88301,5.27127,NS,Sprinter,36
Gouda,52.017501831055,4.7044444084167,Gouda Goverwelle,52.014999389648,4.7408332824707,NS,Sprinter,15
Amsterdam Centraal,52.378887176514,4.9002776145935,Assen,52.991664886475,6.5708332061768,NS,Intercity,2
Amsterdam Bijlmer ArenA,52.3122215271,4.9469442367554,Driebergen-Zeist,52.065277099609,5.25861120224,NS,Sprinter,61
Groningen,53.210556030273,6.5647220611572,Groningen Europapark,53.20480027,6.5854178,NS,Stopbus ipv trein,704
Ede-Wageningen,52.027778625488,5.6730556488037,Barneveld Centrum,52.139999389648,5.590277671814,RRReis,Stopbus ipv trein,2
Zwolle,52.504722595215,6.0919442176819,Coevorden,52.663612365723,6.7355556488037,Blauwnet,Sneltrein,1386
Bergen op Zoom,51.49388885498,4.2961111068726,Roosendaal,51.540279388428,4.4583334922791,NS,Snelbus ipv trein,1
Leiden Centraal,52.166110992432,4.4816665649414,Delft,52.00666809082,4.3563890457153,NS Int,Int. Trein,2
Rotterdam Centraal,51.92499923706,4.468888759613,Venlo,51.363609313965,6.1727776527405,NS,Intercity,354
Roosendaal,51.540279388428,4.4583334922791,Lage Zwaluwe,51.69111251831,4.6630554199219,NS,Intercity,3
Groningen Europapark,53.20480027,6.5854178,Zwolle,52.504722595215,6.0919442176819,NS,Intercity,1
Vlissingen,51.445835113525,3.5952777862549,Deventer,52.257499694824,6.1605553627014,NS,Intercity,25
Wijchen,51.811668395996,5.730833530426,Nijmegen,51.843612670898,5.8522224426269,NS,Sprinter,66
Amersfoort Schothorst,52.174822137451,5.4038887023926,Amersfoort Centraal,52.153888702393,5.3705554008484,NS,Snelbus ipv trein,20
Oudenbosch,51.587776184082,4.5333333015442,Lage Zwaluwe,51.69111251831,4.6630554199219,NS,Intercity,3
Leeuwarden,53.195835113525,5.7922220230103,Den Haag HS,52.069721221924,4.3225002288818,NS,Intercity,39
Grou-Jirnsum,53.088890075684,5.8225002288818,Akkrum,53.046390533447,5.843611240387,NS,Stopbus ipv trein,1085
Apeldoorn,52.209167480469,5.9702777862549,Almelo,52.358055114746,6.6538887023926,NS,Sprinter,8079
Rijssen,52.3122215271,6.5202779769897,Apeldoorn,52.209167480469,5.9702777862549,NS,Intercity,4
Schiphol Airport,52.30944442749,4.7619442939758,Naarden-Bussum,52.280277252197,5.1569442749023,NS,Intercity,1
Ede-Wageningen,52.027778625488,5.6730556488037,Utrecht Centraal,52.088890075684,5.1102776527405,NS,Intercity,4
Zuidbroek,53.159612280006,6.8679141998291,Veendam,53.10324,6.88475,Arriva,Stoptrein,1
Almelo,52.358055114746,6.6538887023926,Weesp,52.3127784729,5.0430555343628,NS,Intercity,1
Nijmegen Goffert,51.8273,5.822722,Nijmegen,51.843612670898,5.8522224426269,NS,Extra trein,1
Hardenberg,52.572776794434,6.6286110877991,Zwolle,52.504722595215,6.0919442176819,Blauwnet,Stoptrein,115
Hoofddorp,52.293334960938,4.7005553245544,Utrecht Centraal,52.088890075684,5.1102776527405,NS,Sprinter,4807
Utrecht Centraal,52.088890075684,5.1102776527405,Amsterdam Centraal,52.378887176514,4.9002776145935,NS,Extra trein,2
Zwolle,52.504722595215,6.0919442176819,Arnhem Zuid,51.955001831055,5.8519444465637,NS,Intercity,1
Nijmegen,51.843612670898,5.8522224426269,Boxmeer,51.644521767653,5.9390330314636,Arriva,Stoptrein,190
Den Haag HS,52.069721221924,4.3225002288818,Den Haag Centraal,52.080276489258,4.3249998092651,NS,Sprinter,560
Bodegraven,52.081390380859,4.7461109161377,Utrecht Centraal,52.088890075684,5.1102776527405,NS,Extra trein,3
Den Haag HS,52.069721221924,4.3225002288818,Utrecht Centraal,52.088890075684,5.1102776527405,NS,Sprinter,1
Haarlem,52.38777923584,4.6383333206177,Vlissingen,51.445835113525,3.5952777862549,NS,Intercity,39
Leiden Centraal,52.166110992432,4.4816665649414,Den Haag HS,52.069721221924,4.3225002288818,NS,Snelbus ipv trein,65
Zwolle,52.504722595215,6.0919442176819,Groningen,53.210556030273,6.5647220611572,NS,Sprinter,11639
Den Haag Centraal,52.080276489258,4.3249998092651,Uitgeest,52.521667480469,4.7016668319702,NS,Sprinter,269
Nijmegen,51.843612670898,5.8522224426269,Zwijndrecht,51.814998626709,4.6416668891907,NS,Sprinter,1
Den Haag Centraal,52.080276489258,4.3249998092651,Dordrecht,51.807220458984,4.668333530426,NS,Sprinter,18521
Amsterdam Centraal,52.378887176514,4.9002776145935,Utrecht Centraal,52.088890075684,5.1102776527405,NS,Snelbus ipv trein,12
Tilburg Universiteit,51.564985,5.051778,Eindhoven Centraal,51.443332672119,5.4813890457153,NS,Stopbus ipv trein,1
Lelystad Centrum,52.507778167725,5.4727778434753,Leiden Centraal,52.166110992432,4.4816665649414,NS,Intercity,49
Amsterdam Zuid,52.338889,4.872356,Amsterdam Centraal,52.378887176514,4.9002776145935,NS,Metro ipv trein,2624
Den Haag Centraal,52.080276489258,4.3249998092651,Voorschoten,52.1252784729,4.4324998855591,NS,Intercity,2
Sliedrecht,51.829723358154,4.7783331871033,Boven-Hardinxveld,51.832222,4.878056,R-net,Stopbus ipv trein,42
Lage Zwaluwe,51.69111251831,4.6630554199219,Roosendaal,51.540279388428,4.4583334922791,NS,Stopbus ipv trein,568
Utrecht Maliebaan,52.087776184082,5.1313886642456,Amersfoort Centraal,52.153888702393,5.3705554008484,NS,Speciale Trein,132
Rhenen,51.958610534668,5.5783333778381,Amsterdam Bijlmer ArenA,52.3122215271,4.9469442367554,NS,Sprinter,72
Schiphol Airport,52.30944442749,4.7619442939758,Nieuw Vennep,52.258888244629,4.6455554962158,NS,Stopbus ipv trein,5
Alkmaar,52.63777923584,4.7397222518921,Beverwijk,52.478332519531,4.6566667556763,NS,Sprinter,51
Eindhoven Centraal,51.443332672119,5.4813890457153,Weert,51.248611450195,5.7036108970642,NS,Sprinter,4023
Woerden,52.084999084473,4.8936109542847,Tiel,51.889446258545,5.4222221374512,NS,Sprinter,183
Groningen,53.210556030273,6.5647220611572,'t Harde,52.4091682,5.893611,NS,Intercity,1
Zwolle,52.504722595215,6.0919442176819,Akkrum,53.046390533447,5.843611240387,NS,Sprinter,78
Haarlem,52.38777923584,4.6383333206177,Den Haag HS,52.069721221924,4.3225002288818,NS,Intercity,86
Gorinchem,51.833889007568,4.9683332443237,Dordrecht,51.807220458984,4.668333530426,R-net,Stoptrein,9322
Hoorn,52.644721984863,5.0555553436279,Alkmaar,52.63777923584,4.7397222518921,NS,Stopbus ipv trein,15
Delft,52.00666809082,4.3563890457153,Venlo,51.363609313965,6.1727776527405,NS,Intercity,211
Dordrecht,51.807220458984,4.668333530426,Eindhoven Centraal,51.443332672119,5.4813890457153,NS,Snelbus ipv trein,8
Nijmegen,51.843612670898,5.8522224426269,'s-Hertogenbosch,51.69048,5.29362,NS,Snelbus ipv trein,67
Hoorn,52.644721984863,5.0555553436279,Haarlem,52.38777923584,4.6383333206177,NS,Sprinter,433
Uitgeest,52.521667480469,4.7016668319702,Amsterdam Sloterdijk,52.388889312744,4.8377776145935,NS,Sprinter,40
Grou-Jirnsum,53.088890075684,5.8225002288818,Leeuwarden,53.195835113525,5.7922220230103,NS,Snelbus ipv trein,4
Schiedam Centrum,51.921243812803,4.4089937210083,Dordrecht,51.807220458984,4.668333530426,NS,Sprinter,10
Rotterdam Centraal,51.92499923706,4.468888759613,Woerden,52.084999084473,4.8936109542847,NS,Sprinter,3
Dordrecht,51.807220458984,4.668333530426,Breda,51.595554351807,4.7800002098083,NS,Snelbus ipv trein,229
Enschede,52.222499847412,6.8899998664856,Raalte,52.391666412354,6.2775001525879,Blauwnet,Sprinter,152
Den Haag HS,52.069721221924,4.3225002288818,Hoorn Kersenboogerd,52.653610229492,5.0855555534363,NS,Sprinter,4
Lelystad Centrum,52.507778167725,5.4727778434753,Groningen Europapark,53.20480027,6.5854178,NS,Intercity,9
Santpoort Noord,52.43388748169,4.6325001716614,Alkmaar,52.63777923584,4.7397222518921,NS,Sprinter,8
Hilversum,52.225833892822,5.1819443702698,Amsterdam Centraal,52.378887176514,4.9002776145935,NS,Sprinter,23
Gouda,52.017501831055,4.7044444084167,Rotterdam Centraal,51.92499923706,4.468888759613,NS,Stopbus ipv trein,9
Enschede,52.222499847412,6.8899998664856,Raalte,52.391666412354,6.2775001525879,Blauwnet,Stopbus ipv trein,1
Utrecht Centraal,52.088890075684,5.1102776527405,Almere Centrum,52.37503,5.21764,NS,Intercity,25
Helmond,51.475555419922,5.6619443893433,Helmond Brandevoort,51.462223052979,5.6072220802307,NS,Taxibus ipv trein,4
Schiphol Airport,52.30944442749,4.7619442939758,Rotterdam Centraal,51.92499923706,4.468888759613,NS,Intercity,12
Lage Zwaluwe,51.69111251831,4.6630554199219,'s-Hertogenbosch,51.69048,5.29362,NS,Sprinter,10
Den Haag Centraal,52.080276489258,4.3249998092651,Groningen,53.210556030273,6.5647220611572,NS,Intercity,6027
Nijmegen,51.843612670898,5.8522224426269,Lage Zwaluwe,51.69111251831,4.6630554199219,NS,Sprinter,123
Arnhem Centraal,51.985000610352,5.8991665840149,Wolfheze,52.005554199219,5.7936110496521,NS,Sprinter,675
Den Haag HS,52.069721221924,4.3225002288818,Den Haag Centraal,52.080276489258,4.3249998092651,NS,Intercity,77
Groningen,53.210556030273,6.5647220611572,Assen,52.991664886475,6.5708332061768,NS,Intercity,29
's-Hertogenbosch,51.69048,5.29362,Geldermalsen,51.88301,5.27127,NS,Stopbus ipv trein,111
Enkhuizen,52.699165344238,5.286388874054,Amsterdam Centraal,52.378887176514,4.9002776145935,NS,Intercity,965
Utrecht Centraal,52.088890075684,5.1102776527405,Rotterdam Centraal,51.92499923706,4.468888759613,NS,Intercity,12417
Beverwijk,52.478332519531,4.6566667556763,Hoorn,52.644721984863,5.0555553436279,NS,Sprinter,255
Leeuwarden,53.195835113525,5.7922220230103,Wolvega,52.880832672119,6.0036110877991,NS,Intercity,7
Capelle Schollevaar,51.954166412354,4.5841665267944,Rotterdam Centraal,51.92499923706,4.468888759613,NS,Extra trein,1
Rotterdam Centraal,51.92499923706,4.468888759613,Driebergen-Zeist,52.065277099609,5.25861120224,NS,Intercity,312
Delft Campus,51.990833282471,4.3647222518921,Schiedam Centrum,51.921243812803,4.4089937210083,NS,Stopbus ipv trein,2094
Arnhem Centraal,51.985000610352,5.8991665840149,Alkmaar,52.63777923584,4.7397222518921,NS,Intercity,4
Dordrecht,51.807220458984,4.668333530426,Nijmegen,51.843612670898,5.8522224426269,NS,Intercity,12
Bergen op Zoom,51.49388885498,4.2961111068726,Almere Centrum,52.37503,5.21764,NS,Intercity,1
Oldenzaal,52.30638885498,6.9347224235535,Hengelo,52.261665344238,6.7938890457153,Eurobahn,Stopbus ipv trein,1
Kruiningen-Yerseke,51.465000152588,4.0372223854065,Amersfoort Centraal,52.153888702393,5.3705554008484,NS,Intercity,12
Nijverdal,52.366111,6.462,Almelo,52.358055114746,6.6538887023926,Blauwnet,Snelbus ipv trein,391
Holten,52.283889770508,6.42027759552,Almelo,52.358055114746,6.6538887023926,NS,Extra trein,1
Hoorn,52.644721984863,5.0555553436279,Amsterdam Sloterdijk,52.388889312744,4.8377776145935,NS,Snelbus ipv trein,1
Wierden,52.361389160156,6.5916666984558,Zwolle,52.504722595215,6.0919442176819,Blauwnet,Snelbus ipv trein,115
Amersfoort Centraal,52.153888702393,5.3705554008484,Ede-Wageningen,52.027778625488,5.6730556488037,RRReis,Stopbus ipv trein,1400
Schiphol Airport,52.30944442749,4.7619442939758,Hoofddorp,52.293334960938,4.7005553245544,NS,Snelbus ipv trein,1
Deurne,51.455833435059,5.7888889312744,Oss,51.765556335449,5.5322222709656,NS,Sprinter,346
Rotterdam Centraal,51.92499923706,4.468888759613,Almere Centrum,52.37503,5.21764,NS,Intercity,8
Leeuwarden,53.195835113525,5.7922220230103,Buitenpost,53.2564547,6.1446496,Arriva,Sneltrein,4
Alkmaar,52.63777923584,4.7397222518921,Boxtel,51.58433,5.31912,NS,Intercity,70
Eindhoven Centraal,51.443332672119,5.4813890457153,Sittard,51.001667022705,5.8586111068726,NS,Intercity,86
Rijssen,52.3122215271,6.5202779769897,Schiphol Airport,52.30944442749,4.7619442939758,NS,Intercity,127
Leiden Centraal,52.166110992432,4.4816665649414,Woerden,52.084999084473,4.8936109542847,NS,Sprinter,71
Bovenkarspel-Grootebroek,52.694999694824,5.2377777099609,Bovenkarspel Flora,52.696109771729,5.2527775764465,NS,Taxibus ipv trein,766
Vleuten,52.103056,5.007404,'s-Hertogenbosch,51.69048,5.29362,NS,Sprinter,68
Alkmaar,52.63777923584,4.7397222518921,Den Helder,52.955276489258,4.7611112594605,NS,Sprinter,4
Breda,51.595554351807,4.7800002098083,Lage Zwaluwe,51.69111251831,4.6630554199219,NS,Sprinter,89
Oldenzaal,52.30638885498,6.9347224235535,Delden,52.259998321533,6.7161111831665,Blauwnet,Stopbus ipv trein,176
Den Haag Centraal,52.080276489258,4.3249998092651,Lage Zwaluwe,51.69111251831,4.6630554199219,NS,Intercity,1
Amsterdam Sloterdijk,52.388889312744,4.8377776145935,Hoorn Kersenboogerd,52.653610229492,5.0855555534363,NS,Sprinter,1033
Rotterdam Centraal,51.92499923706,4.468888759613,Den Haag Centraal,52.080276489258,4.3249998092651,NS Int,Int. Trein,1
Roermond,51.193054199219,5.9941668510437,Sittard,51.001667022705,5.8586111068726,Arriva,Stopbus ipv trein,73
Den Haag Centraal,52.080276489258,4.3249998092651,Tilburg,51.560554504395,5.0836110115051,NS,Intercity,252
Hoorn Kersenboogerd,52.653610229492,5.0855555534363,Amsterdam Centraal,52.378887176514,4.9002776145935,NS,Sprinter,54
Rotterdam Centraal,51.92499923706,4.468888759613,Den Haag Mariahoeve,52.090557098389,4.3694443702698,NS,Sprinter,2
Amersfoort Centraal,52.153888702393,5.3705554008484,Amsterdam Bijlmer ArenA,52.3122215271,4.9469442367554,NS,Intercity,11
Uitgeest,52.521667480469,4.7016668319702,Den Haag Centraal,52.080276489258,4.3249998092651,NS,Sprinter,288
Helmond Brandevoort,51.462223052979,5.6072220802307,Helmond,51.475555419922,5.6619443893433,NS,Stopbus ipv trein,350
Dordrecht,51.807220458984,4.668333530426,Dordrecht Stadspolders,51.801944732666,4.7166666984558,RRReis,Stopbus ipv trein,5
Etten-Leur,51.57500076294,4.6358332633972,Roosendaal,51.540279388428,4.4583334922791,NS,Extra trein,3
Utrecht Overvecht,52.110000610352,5.1247220039368,Utrecht Centraal,52.088890075684,5.1102776527405,NS,Stopbus ipv trein,681
Zwolle,52.504722595215,6.0919442176819,Enschede,52.222499847412,6.8899998664856,Blauwnet,Stopbus ipv trein,11
Leiden Centraal,52.166110992432,4.4816665649414,Arnhem Centraal,51.985000610352,5.8991665840149,NS,Intercity,24
Santpoort Noord,52.43388748169,4.6325001716614,Beverwijk,52.478332519531,4.6566667556763,NS,Snelbus ipv trein,64
Venlo,51.363609313965,6.1727776527405,Dordrecht,51.807220458984,4.668333530426,NS,Intercity,6168
Utrecht Centraal,52.088890075684,5.1102776527405,Woerden,52.084999084473,4.8936109542847,NS,Sprinter,1087
Alkmaar,52.63777923584,4.7397222518921,Breukelen,52.17149,4.9906,NS,Intercity,1
Utrecht Centraal,52.088890075684,5.1102776527405,Utrecht Overvecht,52.110000610352,5.1247220039368,NS,Sprinter,3
Venlo,51.363609313965,6.1727776527405,Boxtel,51.58433,5.31912,NS,Intercity,205
Putten,52.264999389648,5.5752778053284,Utrecht Centraal,52.088890075684,5.1102776527405,NS,Intercity,1
Zwolle,52.504722595215,6.0919442176819,Nunspeet,52.370834350586,5.7852778434753,NS,Sprinter,4
Heerlen,50.89083480835,5.9749999046326,Sittard,51.001667022705,5.8586111068726,NS,Intercity,1708
Amersfoort Centraal,52.153888702393,5.3705554008484,Hilversum,52.225833892822,5.1819443702698,NS,Sprinter,7
Tilburg Universiteit,51.564985,5.051778,Arnhem Centraal,51.985000610352,5.8991665840149,NS,Sprinter,78
Nieuw Vennep,52.258888244629,4.6455554962158,Hoofddorp,52.293334960938,4.7005553245544,NS,Intercity,1
Roermond,51.193054199219,5.9941668510437,Enkhuizen,52.699165344238,5.286388874054,NS,Intercity,64
's-Hertogenbosch,51.69048,5.29362,Nijmegen,51.843612670898,5.8522224426269,NS,Sprinter,635
Eindhoven Centraal,51.443332672119,5.4813890457153,Oss,51.765556335449,5.5322222709656,NS,Snelbus ipv trein,57
Utrecht Overvecht,52.110000610352,5.1247220039368,Zwolle,52.504722595215,6.0919442176819,NS,Sprinter,75
Amsterdam Centraal,52.378887176514,4.9002776145935,'s-Hertogenbosch,51.69048,5.29362,NS,Intercity,5
Gouda,52.017501831055,4.7044444084167,Amsterdam Sloterdijk,52.388889312744,4.8377776145935,NS,Sprinter,1
Almelo,52.358055114746,6.6538887023926,Den Haag Centraal,52.080276489258,4.3249998092651,NS,Intercity,76
Leiden Centraal,52.166110992432,4.4816665649414,Duivendrecht,52.323333740234,4.9363889694214,NS,Sprinter,1
Utrecht Centraal,52.088890075684,5.1102776527405,Leeuwarden,53.195835113525,5.7922220230103,NS,Intercity,1419
Eindhoven Centraal,51.443332672119,5.4813890457153,Hoorn,52.644721984863,5.0555553436279,NS,Intercity,32
Deurne,51.455833435059,5.7888889312744,Venlo,51.363609313965,6.1727776527405,NS,Snelbus ipv trein,188
Martenshoek,53.1607232,6.7402989,Kropswolde,53.1617362,6.7220882,Arriva,Taxibus ipv trein,2
Amsterdam Centraal,52.378887176514,4.9002776145935,Hilversum,52.225833892822,5.1819443702698,NS,Stopbus ipv trein,2
Den Haag Mariahoeve,52.090557098389,4.3694443702698,Leiden Centraal,52.166110992432,4.4816665649414,NS,Extra trein,1
Rijssen,52.3122215271,6.5202779769897,Deventer,52.257499694824,6.1605553627014,NS,Sprinter,3
Rotterdam Centraal,51.92499923706,4.468888759613,Leiden Centraal,52.166110992432,4.4816665649414,NS,Sprinter,2
Holten,52.283889770508,6.42027759552,Deventer,52.257499694824,6.1605553627014,NS,Extra trein,1
Amsterdam Bijlmer ArenA,52.3122215271,4.9469442367554,Schiphol Airport,52.30944442749,4.7619442939758,NS,Extra trein,2
Sittard,51.001667022705,5.8586111068726,Weert,51.248611450195,5.7036108970642,NS,Snelbus ipv trein,249
Nijmegen,51.843612670898,5.8522224426269,Olst,52.334720611572,6.1130557060242,NS,Intercity,1
Haarlem,52.38777923584,4.6383333206177,Amsterdam Sloterdijk,52.388889312744,4.8377776145935,NS,Stopbus ipv trein,2123
Amsterdam Zuid,52.338889,4.872356,Enschede,52.222499847412,6.8899998664856,NS,Intercity,40
Amsterdam Centraal,52.378887176514,4.9002776145935,Alkmaar,52.63777923584,4.7397222518921,NS,Sprinter,1836
Hengelo,52.261665344238,6.7938890457153,Wierden,52.361389160156,6.5916666984558,Blauwnet,Stopbus ipv trein,26
Schagen,52.784442901611,4.8052778244019,Alkmaar,52.63777923584,4.7397222518921,NS,Snelbus ipv trein,21
Dordrecht,51.807220458984,4.668333530426,Groningen,53.210556030273,6.5647220611572,NS,Intercity,15
Maarheeze,51.304986,5.629796,Eindhoven Centraal,51.443332672119,5.4813890457153,NS,Intercity,4
Rotterdam Centraal,51.92499923706,4.468888759613,Breukelen,52.17149,4.9906,NS,Sprinter,6
Den Haag Centraal,52.080276489258,4.3249998092651,Driebergen-Zeist,52.065277099609,5.25861120224,NS,Intercity,69
Schagen,52.784442901611,4.8052778244019,Den Helder,52.955276489258,4.7611112594605,NS,Snelbus ipv trein,4
's-Hertogenbosch,51.69048,5.29362,Gouda Goverwelle,52.014999389648,4.7408332824707,NS,Sprinter,4
Leiden Centraal,52.166110992432,4.4816665649414,Alphen a/d Rijn,52.124443054199,4.6577777862549,NS,Sprinter,511
Almere Centrum,52.37503,5.21764,Rotterdam Centraal,51.92499923706,4.468888759613,NS,Snelbus ipv trein,1
Vlissingen,51.445835113525,3.5952777862549,Tilburg,51.560554504395,5.0836110115051,NS,Intercity,1
Zevenaar,51.923053741455,6.0719442367554,Arnhem Centraal,51.985000610352,5.8991665840149,NS Int,ICE International,2
Den Haag Centraal,52.080276489258,4.3249998092651,Eindhoven Centraal,51.443332672119,5.4813890457153,NS,Intercity direct,15
Vlissingen,51.445835113525,3.5952777862549,Rotterdam Stadion,51.893890380859,4.5197219848633,NS,Intercity,2
Schiphol Airport,52.30944442749,4.7619442939758,Meppel,52.69083404541,6.1975002288818,NS,Intercity,1
Helmond Brandevoort,51.462223052979,5.6072220802307,Helmond,51.475555419922,5.6619443893433,NS,Extra trein,1
Vlissingen,51.445835113525,3.5952777862549,Rotterdam Lombardijen,51.880001068115,4.531388759613,NS,Intercity,2
Tilburg,51.560554504395,5.0836110115051,Roosendaal,51.540279388428,4.4583334922791,NS,Intercity,6
Zutphen,52.145278930664,6.1941666603088,Arnhem Centraal,51.985000610352,5.8991665840149,NS,Intercity,11
Santpoort Noord,52.43388748169,4.6325001716614,Haarlem,52.38777923584,4.6383333206177,NS,Sprinter,1
Maastricht,50.850276947021,5.7055554389954,Heerlen,50.89083480835,5.9749999046326,NS,Speciale Trein,1
Diemen Zuid,52.330276489258,4.9558334350586,Hoofddorp,52.293334960938,4.7005553245544,NS,Sprinter,2
Utrecht Centraal,52.088890075684,5.1102776527405,Roosendaal,51.540279388428,4.4583334922791,NS,Intercity,1
Utrecht Centraal,52.088890075684,5.1102776527405,'s-Hertogenbosch,51.69048,5.29362,NS,Sprinter,13105
Amsterdam Muiderpoort,52.360553741455,4.9311113357544,Amersfoort Vathorst,52.192779541016,5.4338889122009,NS,Sprinter,161
Leiden Lammenschans,52.146945953369,4.4924998283386,Leiden Centraal,52.166110992432,4.4816665649414,NS,Extra trein,7
Amersfoort Schothorst,52.174822137451,5.4038887023926,Amsterdam Bijlmer ArenA,52.3122215271,4.9469442367554,NS,Intercity,55
Meppel,52.69083404541,6.1975002288818,Akkrum,53.046390533447,5.843611240387,NS,Intercity,2
Amsterdam Muiderpoort,52.360553741455,4.9311113357544,Rotterdam Centraal,51.92499923706,4.468888759613,NS,Sprinter,369
Utrecht Centraal,52.088890075684,5.1102776527405,Eindhoven Centraal,51.443332672119,5.4813890457153,NS,Extra trein,1
Enschede,52.222499847412,6.8899998664856,Den Haag HS,52.069721221924,4.3225002288818,NS,Intercity,21
Baarn,52.208332061768,5.2808332443237,Amersfoort Centraal,52.153888702393,5.3705554008484,NS,Sprinter,27
Rotterdam Noord,51.942222595215,4.4816665649414,Rotterdam Centraal,51.92499923706,4.468888759613,NS,Intercity,1
Breda,51.595554351807,4.7800002098083,Rotterdam Centraal,51.92499923706,4.468888759613,NS,Snelbus ipv trein,28
Den Haag Centraal,52.080276489258,4.3249998092651,Rotterdam Centraal,51.92499923706,4.468888759613,NS,Snelbus ipv trein,28
Roosendaal,51.540279388428,4.4583334922791,Middelburg,51.494720458984,3.6172223091126,NS,Sprinter,1
Uitgeest,52.521667480469,4.7016668319702,Roosendaal,51.540279388428,4.4583334922791,NS,Snelbus ipv trein,62
Winterswijk,51.9677307,6.7155181,Zutphen,52.145278930664,6.1941666603088,Arriva,Stoptrein,10289
Harderwijk,52.337501525879,5.619722366333,Amersfoort Schothorst,52.174822137451,5.4038887023926,NS,Stopbus ipv trein,246
Breukelen,52.17149,4.9906,Uitgeest,52.521667480469,4.7016668319702,NS,Sprinter,153
Delft,52.00666809082,4.3563890457153,Amsterdam Centraal,52.378887176514,4.9002776145935,NS,Intercity,204
Geldermalsen,51.88301,5.27127,Leiden Centraal,52.166110992432,4.4816665649414,NS,Sprinter,94
Heerenveen,52.961387634277,5.9141664505005,Den Haag Centraal,52.080276489258,4.3249998092651,NS,Intercity,1
Utrecht Centraal,52.088890075684,5.1102776527405,Amsterdam Muiderpoort,52.360553741455,4.9311113357544,NS,Sprinter,11
Zandvoort aan Zee,52.3752784729,4.5327777862549,Haarlem,52.38777923584,4.6383333206177,NS,Intercity,14
Nijmegen,51.843612670898,5.8522224426269,Den Haag HS,52.069721221924,4.3225002288818,NS,Intercity,2
's-Hertogenbosch,51.69048,5.29362,Utrecht Centraal,52.088890075684,5.1102776527405,NS,Sprinter,726
Akkrum,53.046390533447,5.843611240387,Lelystad Centrum,52.507778167725,5.4727778434753,NS,Sprinter,435
Rhenen,51.958610534668,5.5783333778381,Utrecht Centraal,52.088890075684,5.1102776527405,NS,Sprinter,365
Utrecht Centraal,52.088890075684,5.1102776527405,Hoorn,52.644721984863,5.0555553436279,NS,Sprinter,2
Hilversum,52.225833892822,5.1819443702698,Utrecht Centraal,52.088890075684,5.1102776527405,NS,Intercity,29
's-Hertogenbosch,51.69048,5.29362,Roosendaal,51.540279388428,4.4583334922791,NS,Intercity,382
Den Haag HS,52.069721221924,4.3225002288818,Haarlem,52.38777923584,4.6383333206177,NS,Sprinter,127
Wierden,52.361389160156,6.5916666984558,Enschede,52.222499847412,6.8899998664856,NS,Intercity,2
Alphen a/d Rijn,52.124443054199,4.6577777862549,Utrecht Centraal,52.088890075684,5.1102776527405,NS,Sprinter,71
Hoofddorp,52.293334960938,4.7005553245544,Schiphol Airport,52.30944442749,4.7619442939758,NS,Stopbus ipv trein,24
Dronten,52.5344,5.72089,Sittard,51.001667022705,5.8586111068726,NS,Snelbus ipv trein,1
Elst,51.916942596435,5.8550000190735,Arnhem Centraal,51.985000610352,5.8991665840149,NS,Extra trein,3
Voorburg,52.066665649414,4.3594446182251,Den Haag Centraal,52.080276489258,4.3249998092651,NS,Intercity,2
Susteren,51.061389923096,5.8630557060242,Roermond,51.193054199219,5.9941668510437,NS,Extra trein,1
Den Helder,52.955276489258,4.7611112594605,Haarlem,52.38777923584,4.6383333206177,NS,Intercity,1
Amsterdam Zuid,52.338889,4.872356,Den Haag Centraal,52.080276489258,4.3249998092651,NS,Intercity,41
Den Haag Centraal,52.080276489258,4.3249998092651,Leiden Centraal,52.166110992432,4.4816665649414,NS,Snelbus ipv trein,10
Zwolle,52.504722595215,6.0919442176819,Leeuwarden,53.195835113525,5.7922220230103,NS,Intercity,602
Hoorn,52.644721984863,5.0555553436279,Purmerend Overwhere,52.511390686035,4.9683332443237,NS,Sprinter,78
Weert,51.248611450195,5.7036108970642,Boxtel,51.58433,5.31912,NS,Sprinter,412
Amsterdam Zuid,52.338889,4.872356,Eindhoven Centraal,51.443332672119,5.4813890457153,NS,Intercity direct,64
Boxtel,51.58433,5.31912,Eindhoven Centraal,51.443332672119,5.4813890457153,NS,Intercity direct,2
Almelo,52.358055114746,6.6538887023926,Enschede,52.222499847412,6.8899998664856,Blauwnet,Intercity,127
Chevremont,50.876110076904,6.0597224235535,Heerlen,50.89083480835,5.9749999046326,Arriva,Stoptrein,1
Utrecht Centraal,52.088890075684,5.1102776527405,'s-Hertogenbosch,51.69048,5.29362,NS,Intercity,4
Purmerend Overwhere,52.511390686035,4.9683332443237,Enkhuizen,52.699165344238,5.286388874054,NS,Snelbus ipv trein,17
Almere Centrum,52.37503,5.21764,Amsterdam Centraal,52.378887176514,4.9002776145935,NS,Intercity,11135
Weert,51.248611450195,5.7036108970642,Eindhoven Centraal,51.443332672119,5.4813890457153,NS,Stopbus ipv trein,70
Beverwijk,52.478332519531,4.6566667556763,Haarlem,52.38777923584,4.6383333206177,NS,Snelbus ipv trein,89
Roosendaal,51.540279388428,4.4583334922791,Oudenbosch,51.587776184082,4.5333333015442,NS,Intercity,1
Hengelo,52.261665344238,6.7938890457153,Enschede,52.222499847412,6.8899998664856,Blauwnet,Stopbus ipv trein,1
Leiden Centraal,52.166110992432,4.4816665649414,Alkmaar,52.63777923584,4.7397222518921,NS,Sprinter,8
Rotterdam Centraal,51.92499923706,4.468888759613,Blerick,51.372501373291,6.1550002098083,NS,Intercity,2
Haarlem,52.38777923584,4.6383333206177,Amsterdam Sloterdijk,52.388889312744,4.8377776145935,NS,Sprinter,108
Den Haag Centraal,52.080276489258,4.3249998092651,Duivendrecht,52.323333740234,4.9363889694214,NS,Intercity,8
Amsterdam Bijlmer ArenA,52.3122215271,4.9469442367554,Utrecht Centraal,52.088890075684,5.1102776527405,NS,Stopbus ipv trein,348
Hoofddorp,52.293334960938,4.7005553245544,Zaandam,52.438888549805,4.8136110305786,NS,Sprinter,32
Mariënberg,52.50944519043,6.5752778053284,Zwolle,52.504722595215,6.0919442176819,Blauwnet,Stopbus ipv trein,2
Zaandam,52.438888549805,4.8136110305786,Utrecht Centraal,52.088890075684,5.1102776527405,NS,Intercity,2
Tiel,51.889446258545,5.4222221374512,Bodegraven,52.081390380859,4.7461109161377,NS,Sprinter,10
Amsterdam Zuid,52.338889,4.872356,Amsterdam Lelylaan,52.357776641846,4.8338890075684,NS,Stopbus ipv trein,5
Vlissingen,51.445835113525,3.5952777862549,Breda,51.595554351807,4.7800002098083,NS,Intercity,18
Enschede,52.222499847412,6.8899998664856,Bilthoven,52.130001068115,5.2038888931274,NS,Intercity,1
Den Haag Centraal,52.080276489258,4.3249998092651,Gouda,52.017501831055,4.7044444084167,NS,Sprinter,187
Purmerend Overwhere,52.511390686035,4.9683332443237,Hoogkarspel,52.69055557251,5.1838889122009,NS,Stopbus ipv trein,52
Appingedam,53.3258135,6.8619577,Delfzijl,53.3336625,6.9240797,Arriva,Stopbus ipv trein,1
's-Hertogenbosch,51.69048,5.29362,Wijchen,51.811668395996,5.730833530426,NS,Intercity,1
Santpoort Noord,52.43388748169,4.6325001716614,Hoorn,52.644721984863,5.0555553436279,NS,Sprinter,32
Groningen,53.210556030273,6.5647220611572,Assen,52.991664886475,6.5708332061768,NS,Stopbus ipv trein,4
Echt,51.100555419922,5.8788890838623,Roermond,51.193054199219,5.9941668510437,Arriva,Stopbus ipv trein,44
Ravenstein,51.794166564941,5.6358332633972,Nijmegen,51.843612670898,5.8522224426269,NS,Extra trein,2
Maastricht,50.850276947021,5.7055554389954,Maastricht Randwyck,50.838611602783,5.7172222137451,Arriva,Stoptrein,36
Amersfoort Schothorst,52.174822137451,5.4038887023926,Rotterdam Centraal,51.92499923706,4.468888759613,NS,Intercity direct,123
Groningen,53.210556030273,6.5647220611572,Den Haag Centraal,52.080276489258,4.3249998092651,NS,Intercity,5847
Leiden Centraal,52.166110992432,4.4816665649414,Utrecht Centraal,52.088890075684,5.1102776527405,NS,Intercity,57
Apeldoorn,52.209167480469,5.9702777862549,Deventer,52.257499694824,6.1605553627014,NS,Extra trein,2
Hoogeveen,52.733890533447,6.4736108779907,Den Haag Centraal,52.080276489258,4.3249998092651,NS,Intercity,14
Harlingen Haven,53.174917,5.4112885,Akkrum,53.046390533447,5.843611240387,NS,Stopbus ipv trein,69
Hilversum,52.225833892822,5.1819443702698,Almere Centrum,52.37503,5.21764,NS,Sprinter,1
Winschoten,53.1392377,7.035101,Groningen,53.210556030273,6.5647220611572,Arriva,Stoptrein,1486
Rhenen,51.958610534668,5.5783333778381,Breukelen,52.17149,4.9906,NS,Sprinter,12333
Roosendaal,51.540279388428,4.4583334922791,Dordrecht,51.807220458984,4.668333530426,NS,Stopbus ipv trein,152
Houten,52.03402,5.16821,Utrecht Centraal,52.088890075684,5.1102776527405,NS,Extra trein,3
Groningen,53.210556030273,6.5647220611572,Beilen,52.854721069336,6.5211110115051,NS,Sprinter,31
Den Haag Centraal,52.080276489258,4.3249998092651,Dordrecht,51.807220458984,4.668333530426,NS,Intercity,30
Assen,52.991664886475,6.5708332061768,Den Haag Centraal,52.080276489258,4.3249998092651,NS,Intercity,1
Geldermalsen,51.88301,5.27127,'s-Hertogenbosch,51.69048,5.29362,NS,Extra trein,2
Schagen,52.784442901611,4.8052778244019,Amsterdam Centraal,52.378887176514,4.9002776145935,NS,Sprinter,4
Eindhoven Centraal,51.443332672119,5.4813890457153,Rotterdam Centraal,51.92499923706,4.468888759613,NS,Extra trein,2
Nijmegen,51.843612670898,5.8522224426269,Amsterdam Zuid,52.338889,4.872356,NS,Intercity,1098
Roosendaal,51.540279388428,4.4583334922791,'s-Hertogenbosch,51.69048,5.29362,NS,Sprinter,16
Driebergen-Zeist,52.065277099609,5.25861120224,Ede-Wageningen,52.027778625488,5.6730556488037,NS,Stopbus ipv trein,290
Lelystad Centrum,52.507778167725,5.4727778434753,Den Haag Laan v NOI,52.078609466553,4.3427777290344,NS,Intercity,1
Voorschoten,52.1252784729,4.4324998855591,Den Haag HS,52.069721221924,4.3225002288818,NS,Extra trein,1
Wierden,52.361389160156,6.5916666984558,Zwolle,52.504722595215,6.0919442176819,Blauwnet,Sprinter,40
Vlissingen,51.445835113525,3.5952777862549,Amsterdam Centraal,52.378887176514,4.9002776145935,NS,Intercity,11222
Maastricht,50.850276947021,5.7055554389954,Heerlen,50.89083480835,5.9749999046326,Arriva,Sneltrein,434
Amsterdam Centraal,52.378887176514,4.9002776145935,Beilen,52.854721069336,6.5211110115051,NS,Intercity,4
Hoogkarspel,52.69055557251,5.1838889122009,Hoorn,52.644721984863,5.0555553436279,NS,Intercity,1
Enkhuizen,52.699165344238,5.286388874054,Amsterdam Sloterdijk,52.388889312744,4.8377776145935,NS,Intercity,69
Den Haag HS,52.069721221924,4.3225002288818,Groningen,53.210556030273,6.5647220611572,NS,Intercity,104
Lelystad Centrum,52.507778167725,5.4727778434753,Dordrecht,51.807220458984,4.668333530426,NS,Intercity,2109
Lage Zwaluwe,51.69111251831,4.6630554199219,Geldermalsen,51.88301,5.27127,NS,Intercity,2
Amsterdam Centraal,52.378887176514,4.9002776145935,Amsterdam Bijlmer ArenA,52.3122215271,4.9469442367554,NS,Intercity,11
Amsterdam Centraal,52.378887176514,4.9002776145935,Zaandam,52.438888549805,4.8136110305786,NS,Intercity,16
Mook-Molenhoek,51.766262,5.879133,Nijmegen,51.843612670898,5.8522224426269,Arriva,Stopbus ipv trein,215
Naarden-Bussum,52.280277252197,5.1569442749023,Hilversum,52.225833892822,5.1819443702698,NS,Extra trein,1
Weesp,52.3127784729,5.0430555343628,Enkhuizen,52.699165344238,5.286388874054,NS,Intercity,1
Groningen,53.210556030273,6.5647220611572,Hurdegaryp,53.2187783,5.934543,Arriva,Stopbus ipv trein,15
Haarlem,52.38777923584,4.6383333206177,Den Haag Mariahoeve,52.090557098389,4.3694443702698,NS,Sprinter,2
Roosendaal,51.540279388428,4.4583334922791,Den Haag Mariahoeve,52.090557098389,4.3694443702698,NS,Intercity,2
Den Helder,52.955276489258,4.7611112594605,Uitgeest,52.521667480469,4.7016668319702,NS,Intercity,9
Putten,52.264999389648,5.5752778053284,'t Harde,52.4091682,5.893611,NS,Stopbus ipv trein,200
Den Haag Centraal,52.080276489258,4.3249998092651,Rotterdam Centraal,51.92499923706,4.468888759613,NS,Stopbus ipv trein,11
Leeuwarden,53.195835113525,5.7922220230103,Sneek,53.0328688,5.6523969,Arriva,Stopbus ipv trein,326
Meppel,52.69083404541,6.1975002288818,Groningen,53.210556030273,6.5647220611572,NS,Intercity,154
Zaandam,52.438888549805,4.8136110305786,Roosendaal,51.540279388428,4.4583334922791,NS,Snelbus ipv trein,21
Den Helder,52.955276489258,4.7611112594605,Amsterdam Centraal,52.378887176514,4.9002776145935,NS,Intercity,646
Wehl,51.9578065,6.213844,Winterswijk,51.9677307,6.7155181,Arriva,Stoptrein,1
't Harde,52.4091682,5.893611,Putten,52.264999389648,5.5752778053284,NS,Extra trein,1
Maastricht,50.850276947021,5.7055554389954,Beek-Elsloo,50.947498321533,5.7866668701172,NS,Intercity,1
Maarheeze,51.304986,5.629796,Maastricht,50.850276947021,5.7055554389954,NS,Intercity,1
Hardenberg,52.572776794434,6.6286110877991,Mariënberg,52.50944519043,6.5752778053284,Blauwnet,Stoptrein,48
Utrecht Centraal,52.088890075684,5.1102776527405,Amsterdam Zuid,52.338889,4.872356,NS,Sprinter,845
Emmen,52.790000915527,6.8994445800781,Ommen,52.50944519043,6.4158334732056,Blauwnet,Stoptrein,6
Weesp,52.3127784729,5.0430555343628,Amsterdam Muiderpoort,52.360553741455,4.9311113357544,NS,Snelbus ipv trein,3
's-Hertogenbosch,51.69048,5.29362,Deventer,52.257499694824,6.1605553627014,NS,Intercity,114
Bunde,50.896945953369,5.7366666793823,Sittard,51.001667022705,5.8586111068726,Arriva,Extra trein,1
Hoogkarspel,52.69055557251,5.1838889122009,Enkhuizen,52.699165344238,5.286388874054,NS,Intercity,118
Bovenkarspel-Grootebroek,52.694999694824,5.2377777099609,Hoorn,52.644721984863,5.0555553436279,NS,Intercity,1
Amersfoort Centraal,52.153888702393,5.3705554008484,Breda,51.595554351807,4.7800002098083,NS,Intercity direct,10
Breda,51.595554351807,4.7800002098083,Roosendaal,51.540279388428,4.4583334922791,NS,Extra trein,2
Utrecht Centraal,52.088890075684,5.1102776527405,Arnhem Centraal,51.985000610352,5.8991665840149,NS,Stopbus ipv trein,6
Roosendaal,51.540279388428,4.4583334922791,Arnhem Centraal,51.985000610352,5.8991665840149,NS,Intercity,410
Driebergen-Zeist,52.065277099609,5.25861120224,Breukelen,52.17149,4.9906,NS,Sprinter,345
Gouda Goverwelle,52.014999389648,4.7408332824707,Zaandam,52.438888549805,4.8136110305786,NS,Stopbus ipv trein,36
Gouda,52.017501831055,4.7044444084167,Wormerveer,52.489166259766,4.7922220230103,NS,Sprinter,1
Eindhoven Centraal,51.443332672119,5.4813890457153,Boxtel,51.58433,5.31912,NS,Snelbus ipv trein,1247
Landgraaf,50.896389007568,6.019166469574,Kerkrade Centrum,50.861667633057,6.0574998855591,Arriva,Extra trein,76
Almere Centrum,52.37503,5.21764,Den Haag Centraal,52.080276489258,4.3249998092651,NS,Intercity,1
Amsterdam Centraal,52.378887176514,4.9002776145935,Den Haag HS,52.069721221924,4.3225002288818,NS,Sprinter,52
Delft,52.00666809082,4.3563890457153,Rotterdam Centraal,51.92499923706,4.468888759613,NS,Sprinter,18
Roosendaal,51.540279388428,4.4583334922791,Zwijndrecht,51.814998626709,4.6416668891907,NS,Sprinter,40
Leeuwarden,53.195835113525,5.7922220230103,Lelystad Centrum,52.507778167725,5.4727778434753,NS,Sprinter,9156
Hoogeveen,52.733890533447,6.4736108779907,Assen,52.991664886475,6.5708332061768,NS,Snelbus ipv trein,60
Anna Paulowna,52.867221832275,4.8111109733581,Den Helder,52.955276489258,4.7611112594605,NS,Intercity,1
Amsterdam Sloterdijk,52.388889312744,4.8377776145935,Rotterdam Centraal,51.92499923706,4.468888759613,NS,Intercity,6
Amsterdam Centraal,52.378887176514,4.9002776145935,Amsterdam Bijlmer ArenA,52.3122215271,4.9469442367554,NS,Stopbus ipv trein,136
Heeze,51.384998321533,5.5694446563721,Maastricht,50.850276947021,5.7055554389954,NS,Intercity,1
Zutphen,52.145278930664,6.1941666603088,Goor,52.230278015137,6.5844445228577,Blauwnet,Stoptrein,296
Geldrop,51.419723510742,5.5505557060242,Eindhoven Centraal,51.443332672119,5.4813890457153,NS,Intercity,1
Amsterdam Bijlmer ArenA,52.3122215271,4.9469442367554,Schiphol Airport,52.30944442749,4.7619442939758,NS,Snelbus ipv trein,2
Amsterdam Lelylaan,52.357776641846,4.8338890075684,Amsterdam Centraal,52.378887176514,4.9002776145935,NS,Extra trein,4
Amersfoort Schothorst,52.174822137451,5.4038887023926,Harderwijk,52.337501525879,5.619722366333,NS,Stopbus ipv trein,239
Heerlen Woonboulevard,50.896667,5.952222,Heerlen,50.89083480835,5.9749999046326,Arriva,Stoptrein,1
Rotterdam Lombardijen,51.880001068115,4.531388759613,Dordrecht,51.807220458984,4.668333530426,NS,Stopbus ipv trein,1
Lelystad Centrum,52.507778167725,5.4727778434753,Amsterdam Zuid,52.338889,4.872356,NS,Intercity,350
Den Haag HS,52.069721221924,4.3225002288818,Arnhem Centraal,51.985000610352,5.8991665840149,NS,Intercity,43
Den Haag HS,52.069721221924,4.3225002288818,Breda,51.595554351807,4.7800002098083,NS,Intercity,10
Almere Centrum,52.37503,5.21764,Utrecht Centraal,52.088890075684,5.1102776527405,NS,Intercity,17
Den Haag Centraal,52.080276489258,4.3249998092651,Den Haag Ypenburg,52.055278778076,4.39222240448,NS,Intercity,6
Woerden,52.084999084473,4.8936109542847,Gouda,52.017501831055,4.7044444084167,NS,Extra trein,1
Baarn,52.208332061768,5.2808332443237,Amersfoort Vathorst,52.192779541016,5.4338889122009,NS,Extra trein,1
Rotterdam Centraal,51.92499923706,4.468888759613,Lelystad Centrum,52.507778167725,5.4727778434753,NS,Intercity direct,162
Delden,52.259998321533,6.7161111831665,Zutphen,52.145278930664,6.1941666603088,Blauwnet,Stoptrein,180
Hoofddorp,52.293334960938,4.7005553245544,'t Harde,52.4091682,5.893611,NS,Stopbus ipv trein,3
Hardinxveld-Giessendam,51.830554962158,4.8358335494995,Geldermalsen,51.88301,5.27127,R-net,Stopbus ipv trein,20
Tilburg,51.560554504395,5.0836110115051,Weert,51.248611450195,5.7036108970642,NS,Sprinter,96
Rotterdam Alexander,51.951946258545,4.5536112785339,Rotterdam Blaak,51.920276641846,4.4888887405395,NS,Metro ipv trein,238
Meppel,52.69083404541,6.1975002288818,Groningen,53.210556030273,6.5647220611572,NS,Sprinter,172
Nijmegen,51.843612670898,5.8522224426269,Mook-Molenhoek,51.766262,5.879133,Arriva,Stopbus ipv trein,214
Den Haag HS,52.069721221924,4.3225002288818,Hoofddorp,52.293334960938,4.7005553245544,NS,Intercity,2
Lage Zwaluwe,51.69111251831,4.6630554199219,Venlo,51.363609313965,6.1727776527405,NS,Intercity,218
Groningen,53.210556030273,6.5647220611572,Buitenpost,53.2564547,6.1446496,Arriva,Sneltrein,3
Amersfoort Centraal,52.153888702393,5.3705554008484,Weesp,52.3127784729,5.0430555343628,NS,Sprinter,32
Hilversum,52.225833892822,5.1819443702698,Amersfoort Schothorst,52.174822137451,5.4038887023926,NS,Intercity,1059
Alkmaar,52.63777923584,4.7397222518921,Breukelen,52.17149,4.9906,NS,Sprinter,1
Zwolle,52.504722595215,6.0919442176819,'t Harde,52.4091682,5.893611,NS,Sprinter,150
Rotterdam Centraal,51.92499923706,4.468888759613,Nieuwerkerk a/d IJssel,51.965278625488,4.6169443130493,NS,Intercity,4
Maastricht,50.850276947021,5.7055554389954,Landgraaf,50.896389007568,6.019166469574,Arriva,Sneltrein,1
Sittard,51.001667022705,5.8586111068726,Roermond,51.193054199219,5.9941668510437,NS,Snelbus ipv trein,223
Den Haag Centraal,52.080276489258,4.3249998092651,Tilburg Reeshof,51.573612213135,4.9944443702698,NS,Intercity,1
Landgraaf,50.896389007568,6.019166469574,Heerlen,50.89083480835,5.9749999046326,Arriva,Stoptrein,1
Zwolle,52.504722595215,6.0919442176819,Putten,52.264999389648,5.5752778053284,NS,Intercity,178
Bilthoven,52.130001068115,5.2038888931274,Baarn,52.208332061768,5.2808332443237,NS,Stopbus ipv trein,37
Arnhem Centraal,51.985000610352,5.8991665840149,Tilburg Universiteit,51.564985,5.051778,NS,Intercity,1
Woerden,52.084999084473,4.8936109542847,Uitgeest,52.521667480469,4.7016668319702,NS,Sprinter,144
Groningen,53.210556030273,6.5647220611572,Roodeschool,53.421262,6.7587,Arriva,Stoptrein,8663
Den Haag Mariahoeve,52.090557098389,4.3694443702698,Den Haag HS,52.069721221924,4.3225002288818,NS,Extra trein,2
Leiden Centraal,52.166110992432,4.4816665649414,Schiphol Airport,52.30944442749,4.7619442939758,NS,Stopbus ipv trein,41
Roodeschool,53.421262,6.7587,Usquert,53.4014742,6.6093776,Arriva,Stopbus ipv trein,5
Haarlem,52.38777923584,4.6383333206177,Heerhugowaard,52.669723510742,4.8227777481079,NS,Sprinter,4
Schiedam Centrum,51.921243812803,4.4089937210083,Rotterdam Centraal,51.92499923706,4.468888759613,NS,Extra trein,6
Dalfsen,52.498332977295,6.25861120224,'t Harde,52.4091682,5.893611,Blauwnet,Stopbus ipv trein,13
Arnhem Centraal,51.985000610352,5.8991665840149,Driebergen-Zeist,52.065277099609,5.25861120224,NS,Stopbus ipv trein,349
Leiden Centraal,52.166110992432,4.4816665649414,Den Haag Centraal,52.080276489258,4.3249998092651,NS,Stopbus ipv trein,167
Putten,52.264999389648,5.5752778053284,Zwolle,52.504722595215,6.0919442176819,NS,Snelbus ipv trein,3
Kampen Zuid,52.5331,5.91309,Hoofddorp,52.293334960938,4.7005553245544,NS,Sprinter,4
Arnhem Centraal,51.985000610352,5.8991665840149,Roosendaal,51.540279388428,4.4583334922791,NS,Sprinter,144
Utrecht Centraal,52.088890075684,5.1102776527405,Venlo,51.363609313965,6.1727776527405,NS,Intercity,96
Vlissingen,51.445835113525,3.5952777862549,Bergen op Zoom,51.49388885498,4.2961111068726,NS,Sprinter,5
Utrecht Centraal,52.088890075684,5.1102776527405,'t Harde,52.4091682,5.893611,NS,Sprinter,182
Rotterdam Lombardijen,51.880001068115,4.531388759613,Rotterdam Centraal,51.92499923706,4.468888759613,NS,Intercity,6
Amsterdam Muiderpoort,52.360553741455,4.9311113357544,Deventer,52.257499694824,6.1605553627014,NS,Intercity,1
Leeuwarden,53.195835113525,5.7922220230103,Almere Oostvaarders,52.403331756592,5.3005557060242,NS,Intercity,3
Utrecht Centraal,52.088890075684,5.1102776527405,Voorburg,52.066665649414,4.3594446182251,NS,Intercity,3
Hoogeveen,52.733890533447,6.4736108779907,Beilen,52.854721069336,6.5211110115051,NS,Snelbus ipv trein,1
Uitgeest,52.521667480469,4.7016668319702,Driebergen-Zeist,52.065277099609,5.25861120224,NS,Sprinter,1279
Tiel,51.889446258545,5.4222221374512,Arnhem Centraal,51.985000610352,5.8991665840149,Arriva,Stoptrein,9365
Tilburg Universiteit,51.564985,5.051778,Breda,51.595554351807,4.7800002098083,NS,Stopbus ipv trein,431
Eindhoven Centraal,51.443332672119,5.4813890457153,Venlo,51.363609313965,6.1727776527405,NS,Intercity,1483
Leeuwarden,53.195835113525,5.7922220230103,'t Harde,52.4091682,5.893611,NS,Intercity,1
Sneek,53.0328688,5.6523969,Leeuwarden,53.195835113525,5.7922220230103,Arriva,Stopbus ipv trein,289
Baarn,52.208332061768,5.2808332443237,Weesp,52.3127784729,5.0430555343628,NS,Snelbus ipv trein,2
Santpoort Noord,52.43388748169,4.6325001716614,Driehuis,52.442501068115,4.6380553245544,NS,Snelbus ipv trein,19
Zaandam,52.438888549805,4.8136110305786,Den Haag Centraal,52.080276489258,4.3249998092651,NS,Sprinter,5
Heerlen,50.89083480835,5.9749999046326,Purmerend,52.50305557251,4.9536108970642,NS,Intercity,1
Boxtel,51.58433,5.31912,Geldermalsen,51.88301,5.27127,NS,Snelbus ipv trein,8
Zwolle,52.504722595215,6.0919442176819,'s-Hertogenbosch,51.69048,5.29362,NS,Intercity,633
Ede-Wageningen,52.027778625488,5.6730556488037,Utrecht Centraal,52.088890075684,5.1102776527405,NS,Snelbus ipv trein,209
Abcoude,52.2785,4.977,Amsterdam Centraal,52.378887176514,4.9002776145935,NS,Extra trein,3
Nuth,50.919445037842,5.8927779197693,Heerlen,50.89083480835,5.9749999046326,Arriva,Extra trein,1
't Harde,52.4091682,5.893611,Amersfoort Centraal,52.153888702393,5.3705554008484,NS,Snelbus ipv trein,6
Den Haag Centraal,52.080276489258,4.3249998092651,Deventer,52.257499694824,6.1605553627014,NS,Intercity,5
Halfweg-Zwanenburg,52.385935,4.747165,Amsterdam Centraal,52.378887176514,4.9002776145935,NS,Intercity,1
Deventer,52.257499694824,6.1605553627014,Almelo,52.358055114746,6.6538887023926,NS,Stopbus ipv trein,3
Breda,51.595554351807,4.7800002098083,Rotterdam Zuid,51.904445648193,4.5102777481079,NS,Intercity direct,1
Uitgeest,52.521667480469,4.7016668319702,Haarlem,52.38777923584,4.6383333206177,NS,Stopbus ipv trein,72
Schiphol Airport,52.30944442749,4.7619442939758,Amsterdam Bijlmer ArenA,52.3122215271,4.9469442367554,NS,Snelbus ipv trein,2
Enschede,52.222499847412,6.8899998664856,Zwolle,52.504722595215,6.0919442176819,Blauwnet,Extra trein,1
Eindhoven Centraal,51.443332672119,5.4813890457153,Leiden Centraal,52.166110992432,4.4816665649414,NS,Intercity,57
's-Hertogenbosch,51.69048,5.29362,Boxtel,51.58433,5.31912,NS,Snelbus ipv trein,1200
Tilburg,51.560554504395,5.0836110115051,Zutphen,52.145278930664,6.1941666603088,NS,Intercity,10
Rotterdam Centraal,51.92499923706,4.468888759613,Hoofddorp,52.293334960938,4.7005553245544,NS,Intercity,13
Amersfoort Vathorst,52.192779541016,5.4338889122009,Baarn,52.208332061768,5.2808332443237,NS,Sprinter,80
Amsterdam Bijlmer ArenA,52.3122215271,4.9469442367554,Amsterdam Zuid,52.338889,4.872356,NS,Metro ipv trein,155
Didam,51.933502,6.1324106,Doetinchem,51.9585962,6.2962148,Arriva,Stopbus ipv trein,72
Schiphol Airport,52.30944442749,4.7619442939758,Amsterdam Zuid,52.338889,4.872356,NS,Intercity direct,1
Middelburg,51.494720458984,3.6172223091126,Goes,51.498054504395,3.8905556201935,NS,Snelbus ipv trein,3
Rotterdam Centraal,51.92499923706,4.468888759613,Lelystad Centrum,52.507778167725,5.4727778434753,NS,Intercity,148
Hengelo,52.261665344238,6.7938890457153,Enschede,52.222499847412,6.8899998664856,NS,Intercity,94
Veenendaal West,52.028057098389,5.531388759613,Rhenen,51.958610534668,5.5783333778381,NS,Extra trein,1
Enkhuizen,52.699165344238,5.286388874054,Houten,52.03402,5.16821,NS,Intercity,1
Lelystad Centrum,52.507778167725,5.4727778434753,Zwolle,52.504722595215,6.0919442176819,NS,Sprinter,2981
Schiphol Airport,52.30944442749,4.7619442939758,Weesp,52.3127784729,5.0430555343628,NS,Stopbus ipv trein,10
Zwolle,52.504722595215,6.0919442176819,Almelo,52.358055114746,6.6538887023926,Blauwnet,Intercity,60
Dordrecht,51.807220458984,4.668333530426,Lelystad Centrum,52.507778167725,5.4727778434753,NS,Sprinter,68
Putten,52.264999389648,5.5752778053284,Amersfoort Centraal,52.153888702393,5.3705554008484,NS,Sprinter,8
Hoogeveen,52.733890533447,6.4736108779907,Groningen,53.210556030273,6.5647220611572,NS,Extra trein,3
Den Haag HS,52.069721221924,4.3225002288818,Schiphol Airport,52.30944442749,4.7619442939758,NS,Sprinter,1
Breukelen,52.17149,4.9906,Amsterdam Centraal,52.378887176514,4.9002776145935,NS,Extra trein,1
Zuidhorn,53.2486292,6.4062361,Groningen,53.210556030273,6.5647220611572,NS,Extra trein,1
Heerlen,50.89083480835,5.9749999046326,Den Helder,52.955276489258,4.7611112594605,NS,Intercity,6
Zwolle,52.504722595215,6.0919442176819,Elst,51.916942596435,5.8550000190735,NS,Intercity,2
Nijmegen,51.843612670898,5.8522224426269,'s-Hertogenbosch,51.69048,5.29362,NS,Sprinter,1139
Roosendaal,51.540279388428,4.4583334922791,Vlissingen,51.445835113525,3.5952777862549,NS,Snelbus ipv trein,96
Den Haag HS,52.069721221924,4.3225002288818,Amsterdam Centraal,52.378887176514,4.9002776145935,NS,Extra trein,1
Leiden Centraal,52.166110992432,4.4816665649414,Utrecht Centraal,52.088890075684,5.1102776527405,NS,Sprinter,3382
Gouda,52.017501831055,4.7044444084167,Gouda Goverwelle,52.014999389648,4.7408332824707,NS,Taxibus ipv trein,35
Zutphen,52.145278930664,6.1941666603088,Arnhem Centraal,51.985000610352,5.8991665840149,NS,Sprinter,1
Rotterdam Centraal,51.92499923706,4.468888759613,Wormerveer,52.489166259766,4.7922220230103,NS,Sprinter,67
Enschede,52.222499847412,6.8899998664856,Den Haag Centraal,52.080276489258,4.3249998092651,NS,Intercity,6753
Maastricht Randwyck,50.838611602783,5.7172222137451,Maastricht,50.850276947021,5.7055554389954,Arriva,Stopbus ipv trein,19
Amersfoort Centraal,52.153888702393,5.3705554008484,Driebergen-Zeist,52.065277099609,5.25861120224,NS,Intercity,1
Zwolle,52.504722595215,6.0919442176819,Deventer,52.257499694824,6.1605553627014,NS,Intercity,140
Deventer,52.257499694824,6.1605553627014,'s-Hertogenbosch,51.69048,5.29362,NS,Intercity,116
Emmen,52.790000915527,6.8994445800781,Zwolle,52.504722595215,6.0919442176819,Blauwnet,Sneltrein,5497
Zwolle,52.504722595215,6.0919442176819,Raalte,52.391666412354,6.2775001525879,Blauwnet,Snelbus ipv trein,63
Vlissingen,51.445835113525,3.5952777862549,Roosendaal,51.540279388428,4.4583334922791,NS,Sprinter,3657
Den Haag HS,52.069721221924,4.3225002288818,Hoorn,52.644721984863,5.0555553436279,NS,Sprinter,1
Assen,52.991664886475,6.5708332061768,Groningen,53.210556030273,6.5647220611572,NMBS,Stoptrein,2
Purmerend Overwhere,52.511390686035,4.9683332443237,Zaandam,52.438888549805,4.8136110305786,NS,Snelbus ipv trein,2
Wezep,52.454166412354,6.0025000572205,Amersfoort Centraal,52.153888702393,5.3705554008484,NS,Extra trein,1
Valkenburg,50.869720458984,5.8322219848633,Maastricht,50.850276947021,5.7055554389954,Arriva,Stopbus ipv trein,138
Arnhem Centraal,51.985000610352,5.8991665840149,Rotterdam Centraal,51.92499923706,4.468888759613,NS,Intercity,1041
Zwolle,52.504722595215,6.0919442176819,Nijverdal,52.366111,6.462,Blauwnet,Snelbus ipv trein,32
Amsterdam Centraal,52.378887176514,4.9002776145935,Enkhuizen,52.699165344238,5.286388874054,NS,Sprinter,109
Heerenveen,52.961387634277,5.9141664505005,Akkrum,53.046390533447,5.843611240387,NS,Sprinter,1
Schiedam Centrum,51.921243812803,4.4089937210083,Den Haag Centraal,52.080276489258,4.3249998092651,NS,Stopbus ipv trein,2
Santpoort Noord,52.43388748169,4.6325001716614,Driehuis,52.442501068115,4.6380553245544,NS,Stopbus ipv trein,222
Amersfoort Centraal,52.153888702393,5.3705554008484,Zaandam,52.438888549805,4.8136110305786,NS,Sprinter,5
Amsterdam Bijlmer ArenA,52.3122215271,4.9469442367554,Amersfoort Schothorst,52.174822137451,5.4038887023926,NS,Intercity,198
Beilen,52.854721069336,6.5211110115051,Zwolle,52.504722595215,6.0919442176819,NS,Extra trein,3
Raalte,52.391666412354,6.2775001525879,Enschede,52.222499847412,6.8899998664856,Blauwnet,Intercity,60
's-Hertogenbosch,51.69048,5.29362,Wijchen,51.811668395996,5.730833530426,NS,Snelbus ipv trein,67
Almelo,52.358055114746,6.6538887023926,Enschede,52.222499847412,6.8899998664856,NS,Intercity,424
Bodegraven,52.081390380859,4.7461109161377,Alphen a/d Rijn,52.124443054199,4.6577777862549,NS,Intercity,1
Utrecht Centraal,52.088890075684,5.1102776527405,Alkmaar,52.63777923584,4.7397222518921,NS,Intercity,43
Rijssen,52.3122215271,6.5202779769897,Enschede,52.222499847412,6.8899998664856,NS,Snelbus ipv trein,76
Utrecht Centraal,52.088890075684,5.1102776527405,Dordrecht,51.807220458984,4.668333530426,NS,Sprinter,56
Amersfoort Vathorst,52.192779541016,5.4338889122009,Schiphol Airport,52.30944442749,4.7619442939758,NS,Sprinter,4
Rotterdam Centraal,51.92499923706,4.468888759613,Delft,52.00666809082,4.3563890457153,NS,Intercity,1
Hoofddorp,52.293334960938,4.7005553245544,Schiphol Airport,52.30944442749,4.7619442939758,NS,Snelbus ipv trein,1
Hillegom,52.302501678467,4.5655555725098,Haarlem,52.38777923584,4.6383333206177,NS,Extra trein,1
Haarlem,52.38777923584,4.6383333206177,Roosendaal,51.540279388428,4.4583334922791,NS,Intercity,2
Amersfoort Vathorst,52.192779541016,5.4338889122009,Hoorn,52.644721984863,5.0555553436279,NS,Sprinter,28
Zwolle,52.504722595215,6.0919442176819,Enschede,52.222499847412,6.8899998664856,Blauwnet,Sprinter,12669
Boxtel,51.58433,5.31912,'s-Hertogenbosch,51.69048,5.29362,NS,Stopbus ipv trein,245
Zaandam,52.438888549805,4.8136110305786,Uitgeest,52.521667480469,4.7016668319702,NS,Intercity,1
Geldermalsen,51.88301,5.27127,Boxtel,51.58433,5.31912,NS,Snelbus ipv trein,8
's-Hertogenbosch,51.69048,5.29362,Leiden Centraal,52.166110992432,4.4816665649414,NS,Sprinter,5593
Eindhoven Centraal,51.443332672119,5.4813890457153,Schiphol Airport,52.30944442749,4.7619442939758,NS,Intercity direct,16
Harderwijk,52.337501525879,5.619722366333,Nunspeet,52.370834350586,5.7852778434753,NS,Extra trein,1
Uitgeest,52.521667480469,4.7016668319702,Alkmaar,52.63777923584,4.7397222518921,NS,Extra trein,1
Rotterdam Lombardijen,51.880001068115,4.531388759613,Den Haag Centraal,52.080276489258,4.3249998092651,NS,Sprinter,48
Utrecht Centraal,52.088890075684,5.1102776527405,Bilthoven,52.130001068115,5.2038888931274,NS,Sprinter,22
Den Haag Centraal,52.080276489258,4.3249998092651,Amsterdam Muiderpoort,52.360553741455,4.9311113357544,NS,Sprinter,27
Breukelen,52.17149,4.9906,Maarssen,52.135276794434,5.0336112976074,NS,Stopbus ipv trein,1
Dordrecht,51.807220458984,4.668333530426,Duivendrecht,52.323333740234,4.9363889694214,NS,Intercity,2
Amsterdam Centraal,52.378887176514,4.9002776145935,Breda,51.595554351807,4.7800002098083,NS,Intercity,470
Deventer,52.257499694824,6.1605553627014,Den Haag Centraal,52.080276489258,4.3249998092651,NS,Intercity,65
Groningen,53.210556030273,6.5647220611572,Zwolle,52.504722595215,6.0919442176819,NS,Intercity,69
Zutphen,52.145278930664,6.1941666603088,'s-Hertogenbosch,51.69048,5.29362,NS,Intercity,21
Eindhoven Centraal,51.443332672119,5.4813890457153,Amsterdam Zuid,52.338889,4.872356,NS,Intercity direct,63
Roermond,51.193054199219,5.9941668510437,Venray,51.526568099007,6.0141777992248,Arriva,Stopbus ipv trein,72
't Harde,52.4091682,5.893611,Putten,52.264999389648,5.5752778053284,NS,Intercity,1
Boxtel,51.58433,5.31912,Den Haag Centraal,52.080276489258,4.3249998092651,NS,Intercity,112
Rotterdam Centraal,51.92499923706,4.468888759613,Gouda,52.017501831055,4.7044444084167,NS,Sprinter,37
Maastricht Randwyck,50.838611602783,5.7172222137451,Sittard,51.001667022705,5.8586111068726,Arriva,Stoptrein,430
Schiphol Airport,52.30944442749,4.7619442939758,Venlo,51.363609313965,6.1727776527405,NS,Intercity,5518
Zwolle,52.504722595215,6.0919442176819,Emmen,52.790000915527,6.8994445800781,Blauwnet,Stoptrein,7484
Schiphol Airport,52.30944442749,4.7619442939758,Hoorn Kersenboogerd,52.653610229492,5.0855555534363,NS,Intercity,6
Den Haag HS,52.069721221924,4.3225002288818,Dordrecht,51.807220458984,4.668333530426,NS,Sprinter,295
Apeldoorn Osseveld,52.215278625488,6.0044445991516,Apeldoorn,52.209167480469,5.9702777862549,NS,Stopbus ipv trein,111
Vlissingen,51.445835113525,3.5952777862549,Den Haag Centraal,52.080276489258,4.3249998092651,NS,Intercity,70
Nijmegen,51.843612670898,5.8522224426269,Arnhem Centraal,51.985000610352,5.8991665840149,NS,Sprinter,1614
Hoofddorp,52.293334960938,4.7005553245544,Diemen Zuid,52.330276489258,4.9558334350586,NS,Sprinter,2
Amsterdam Centraal,52.378887176514,4.9002776145935,Amersfoort Vathorst,52.192779541016,5.4338889122009,NS,Sprinter,3057
Duivendrecht,52.323333740234,4.9363889694214,Amersfoort Centraal,52.153888702393,5.3705554008484,NS,Intercity,1
Delft Campus,51.990833282471,4.3647222518921,Rotterdam Centraal,51.92499923706,4.468888759613,NS,Stopbus ipv trein,688
Venlo,51.363609313965,6.1727776527405,Nijmegen,51.843612670898,5.8522224426269,Arriva,Stopbus ipv trein,148
Enschede,52.222499847412,6.8899998664856,Schiphol Airport,52.30944442749,4.7619442939758,NS,Intercity,4555
Gouda,52.017501831055,4.7044444084167,Dordrecht,51.807220458984,4.668333530426,NS,Sprinter,2
Heerlen,50.89083480835,5.9749999046326,Valkenburg,50.869720458984,5.8322219848633,Arriva,Stoptrein,3
Utrecht Centraal,52.088890075684,5.1102776527405,Amsterdam Centraal,52.378887176514,4.9002776145935,NS,Intercity,247
Amersfoort Centraal,52.153888702393,5.3705554008484,Hilversum,52.225833892822,5.1819443702698,NS,Stopbus ipv trein,123
Deventer,52.257499694824,6.1605553627014,Apeldoorn,52.209167480469,5.9702777862549,NS,Intercity,9
Olst,52.334720611572,6.1130557060242,Zwolle,52.504722595215,6.0919442176819,NS,Extra trein,2
Schiphol Airport,52.30944442749,4.7619442939758,Enkhuizen,52.699165344238,5.286388874054,NS,Intercity,422
Alkmaar,52.63777923584,4.7397222518921,Schiphol Airport,52.30944442749,4.7619442939758,NS,Intercity,12
Eindhoven Centraal,51.443332672119,5.4813890457153,Deurne,51.455833435059,5.7888889312744,NS,Extra trein,2
Leiden Centraal,52.166110992432,4.4816665649414,Den Haag Centraal,52.080276489258,4.3249998092651,NS,Snelbus ipv trein,12
Roermond,51.193054199219,5.9941668510437,Hoorn Kersenboogerd,52.653610229492,5.0855555534363,NS,Intercity,2
Boxtel,51.58433,5.31912,Eindhoven Centraal,51.443332672119,5.4813890457153,NS,Sprinter,198
Enschede,52.222499847412,6.8899998664856,Almelo,52.358055114746,6.6538887023926,Blauwnet,Intercity,126
Dordrecht,51.807220458984,4.668333530426,Den Haag Ypenburg,52.055278778076,4.39222240448,NS,Sprinter,10
Enkhuizen,52.699165344238,5.286388874054,Hoorn,52.644721984863,5.0555553436279,NS,Intercity,311
Bunde,50.896945953369,5.7366666793823,Maastricht,50.850276947021,5.7055554389954,Arriva,Extra trein,1
Sittard,51.001667022705,5.8586111068726,Maastricht,50.850276947021,5.7055554389954,ZLSM,Stoomtrein,1
Amsterdam Centraal,52.378887176514,4.9002776145935,Amersfoort Centraal,52.153888702393,5.3705554008484,NS,Extra trein,30
Heerhugowaard,52.669723510742,4.8227777481079,Maastricht,50.850276947021,5.7055554389954,NS,Intercity,1
Nijverdal,52.366111,6.462,Hengelo,52.261665344238,6.7938890457153,Blauwnet,Stopbus ipv trein,66
Utrecht Centraal,52.088890075684,5.1102776527405,Almere Centrum,52.37503,5.21764,NS,Stopbus ipv trein,1
Tilburg,51.560554504395,5.0836110115051,Rotterdam Centraal,51.92499923706,4.468888759613,NS,Intercity,21
Kampen Zuid,52.5331,5.91309,Lelystad Centrum,52.507778167725,5.4727778434753,NS,Sprinter,32
Hilversum,52.225833892822,5.1819443702698,Schiphol Airport,52.30944442749,4.7619442939758,NS,Stopbus ipv trein,1
Breda,51.595554351807,4.7800002098083,Nijmegen,51.843612670898,5.8522224426269,NS,Extra trein,1
Amsterdam Centraal,52.378887176514,4.9002776145935,Bergen op Zoom,51.49388885498,4.2961111068726,NS,Intercity,15
Rotterdam Centraal,51.92499923706,4.468888759613,Groningen Europapark,53.20480027,6.5854178,NS,Intercity,75
Heerlen,50.89083480835,5.9749999046326,Maastricht,50.850276947021,5.7055554389954,Arriva,Stoptrein,141
Schiphol Airport,52.30944442749,4.7619442939758,Hoorn,52.644721984863,5.0555553436279,NS,Sprinter,3
Amsterdam Centraal,52.378887176514,4.9002776145935,Nieuwerkerk a/d IJssel,51.965278625488,4.6169443130493,NS,Stopbus ipv trein,2
Amsterdam Centraal,52.378887176514,4.9002776145935,Overveen,52.391109466553,4.6061110496521,NS,Sprinter,1
Amsterdam Centraal,52.378887176514,4.9002776145935,Amsterdam Zuid,52.338889,4.872356,NS,Metro ipv trein,2509
Beverwijk,52.478332519531,4.6566667556763,Haarlem,52.38777923584,4.6383333206177,NS,Stopbus ipv trein,410
Haarlem,52.38777923584,4.6383333206177,Zandvoort aan Zee,52.3752784729,4.5327777862549,NS,Intercity,1
Alphen a/d Rijn,52.124443054199,4.6577777862549,Leiden Centraal,52.166110992432,4.4816665649414,NS,Sprinter,759
Den Haag Centraal,52.080276489258,4.3249998092651,Weesp,52.3127784729,5.0430555343628,NS,Intercity,1
Groningen,53.210556030273,6.5647220611572,Hoogeveen,52.733890533447,6.4736108779907,Arriva,Nachttrein,1
Amersfoort Centraal,52.153888702393,5.3705554008484,Enschede,52.222499847412,6.8899998664856,NS,Intercity,300
Den Haag Centraal,52.080276489258,4.3249998092651,Zaandam,52.438888549805,4.8136110305786,NS,Intercity,28
Woerden,52.084999084473,4.8936109542847,Amsterdam Centraal,52.378887176514,4.9002776145935,NS,Extra trein,1
Arnhem Centraal,51.985000610352,5.8991665840149,Dieren,52.044998168945,6.1030554771423,NS,Snelbus ipv trein,108
Den Haag Centraal,52.080276489258,4.3249998092651,Voorhout,52.224445343018,4.4844446182251,NS,Intercity,1
Breda,51.595554351807,4.7800002098083,Rotterdam Centraal,51.92499923706,4.468888759613,NS,Intercity direct,225
Zwolle,52.504722595215,6.0919442176819,Vlissingen,51.445835113525,3.5952777862549,NS,Intercity,542
Roosendaal,51.540279388428,4.4583334922791,Venlo,51.363609313965,6.1727776527405,NS,Intercity,52
Oss,51.765556335449,5.5322222709656,Zwolle,52.504722595215,6.0919442176819,NS,Intercity,6
Vlissingen,51.445835113525,3.5952777862549,Amsterdam Sloterdijk,52.388889312744,4.8377776145935,NS,Intercity,72
Eindhoven Centraal,51.443332672119,5.4813890457153,Den Haag Centraal,52.080276489258,4.3249998092651,NS,Intercity direct,11
Utrecht Centraal,52.088890075684,5.1102776527405,Tiel,51.889446258545,5.4222221374512,NS,Sprinter,12717
Den Haag Centraal,52.080276489258,4.3249998092651,'s-Hertogenbosch,51.69048,5.29362,NS,Sprinter,7023
Utrecht Centraal,52.088890075684,5.1102776527405,Akkrum,53.046390533447,5.843611240387,NS,Intercity,19
Utrecht Overvecht,52.110000610352,5.1247220039368,Amersfoort Centraal,52.153888702393,5.3705554008484,NS,Stopbus ipv trein,76
Den Haag HS,52.069721221924,4.3225002288818,Eindhoven Centraal,51.443332672119,5.4813890457153,NS,Intercity direct,14
Amsterdam Centraal,52.378887176514,4.9002776145935,Alkmaar,52.63777923584,4.7397222518921,NS,Stopbus ipv trein,158
Houten,52.03402,5.16821,Utrecht Centraal,52.088890075684,5.1102776527405,NS,Intercity,2
Tiel,51.889446258545,5.4222221374512,Vleuten,52.103056,5.007404,NS,Sprinter,1
Baarn,52.208332061768,5.2808332443237,Utrecht Centraal,52.088890075684,5.1102776527405,NS,Intercity,1
Rotterdam Centraal,51.92499923706,4.468888759613,Schiedam Centrum,51.921243812803,4.4089937210083,NS,Sprinter,2
Heerenveen IJsstadion,52.935276031494,5.9438886642456,Zwolle,52.504722595215,6.0919442176819,NS,Extra trein,1
Eindhoven Centraal,51.443332672119,5.4813890457153,Amsterdam Centraal,52.378887176514,4.9002776145935,NS,Intercity direct,1974
Schiphol Airport,52.30944442749,4.7619442939758,Zwolle,52.504722595215,6.0919442176819,NS,Intercity,17
Baarn,52.208332061768,5.2808332443237,Hilversum,52.225833892822,5.1819443702698,NS,Stopbus ipv trein,1
Bergen op Zoom,51.49388885498,4.2961111068726,Amsterdam Sloterdijk,52.388889312744,4.8377776145935,NS,Intercity,1
Dordrecht,51.807220458984,4.668333530426,Boxtel,51.58433,5.31912,NS,Intercity,70
Uitgeest,52.521667480469,4.7016668319702,Heerhugowaard,52.669723510742,4.8227777481079,NS,Sprinter,5
Meppel,52.69083404541,6.1975002288818,Den Haag Centraal,52.080276489258,4.3249998092651,NS,Intercity,37
Dordrecht,51.807220458984,4.668333530426,Gilze-Rijen,51.583610534668,4.9261112213135,NS,Snelbus ipv trein,34
Groningen Europapark,53.20480027,6.5854178,Groningen,53.210556030273,6.5647220611572,NS,Extra trein,2
Soest,52.173332214355,5.3099999427795,Amsterdam Centraal,52.378887176514,4.9002776145935,NS,Sprinter,67
Geldermalsen,51.88301,5.27127,Gorinchem,51.833889007568,4.9683332443237,R-net,Stopbus ipv trein,1
Delft Campus,51.990833282471,4.3647222518921,Rotterdam Centraal,51.92499923706,4.468888759613,NS,Snelbus ipv trein,16
Roermond,51.193054199219,5.9941668510437,Boxtel,51.58433,5.31912,NS,Intercity,1
Zaandam,52.438888549805,4.8136110305786,Hoorn,52.644721984863,5.0555553436279,NS,Snelbus ipv trein,2
Maastricht,50.850276947021,5.7055554389954,Wormerveer,52.489166259766,4.7922220230103,NS,Intercity,1
Zwolle,52.504722595215,6.0919442176819,Hardenberg,52.572776794434,6.6286110877991,Blauwnet,Stoptrein,102
Amersfoort Schothorst,52.174822137451,5.4038887023926,Amersfoort Centraal,52.153888702393,5.3705554008484,NS,Stopbus ipv trein,1167
Hengelo,52.261665344238,6.7938890457153,Almelo,52.358055114746,6.6538887023926,NS,Snelbus ipv trein,45
Haren,53.176109313965,6.6172223091125,Groningen,53.210556030273,6.5647220611572,NS,Stopbus ipv trein,53
Rijssen,52.3122215271,6.5202779769897,Wierden,52.361389160156,6.5916666984558,NS,Stopbus ipv trein,545
Enschede,52.222499847412,6.8899998664856,Amsterdam Centraal,52.378887176514,4.9002776145935,NS,Intercity,34
Amsterdam Zuid,52.338889,4.872356,Schiphol Airport,52.30944442749,4.7619442939758,NS,Extra trein,1
Amsterdam Bijlmer ArenA,52.3122215271,4.9469442367554,Abcoude,52.2785,4.977,NS,Extra trein,1
Gilze-Rijen,51.583610534668,4.9261112213135,'s-Hertogenbosch,51.69048,5.29362,NS,Intercity,2
Amsterdam Centraal,52.378887176514,4.9002776145935,Zaandam,52.438888549805,4.8136110305786,NS,Sprinter,46
Rhenen,51.958610534668,5.5783333778381,Wormerveer,52.489166259766,4.7922220230103,NS,Sprinter,2
Hoofddorp,52.293334960938,4.7005553245544,Amsterdam Zuid,52.338889,4.872356,NS,Stopbus ipv trein,2
Amsterdam RAI,52.337223052979,4.8902778625488,Zwolle,52.504722595215,6.0919442176819,NS,Extra trein,1
Nijmegen,51.843612670898,5.8522224426269,Zwolle,52.504722595215,6.0919442176819,NS,Intercity,450
Utrecht Centraal,52.088890075684,5.1102776527405,Breukelen,52.17149,4.9906,NS,Sprinter,602
Baarn,52.208332061768,5.2808332443237,Deventer,52.257499694824,6.1605553627014,NS,Snelbus ipv trein,6
Leiden Centraal,52.166110992432,4.4816665649414,Haarlem,52.38777923584,4.6383333206177,NS,Stopbus ipv trein,275
Sliedrecht,51.829723358154,4.7783331871033,Dordrecht,51.807220458984,4.668333530426,R-net,Stopbus ipv trein,2
Rotterdam Centraal,51.92499923706,4.468888759613,Breda,51.595554351807,4.7800002098083,NS,Intercity direct,617
Sassenheim,52.215278,4.517222,Hoofddorp,52.293334960938,4.7005553245544,NS,Extra trein,1
Eindhoven Centraal,51.443332672119,5.4813890457153,Amsterdam Centraal,52.378887176514,4.9002776145935,NS,Intercity,85
Breda,51.595554351807,4.7800002098083,Dordrecht,51.807220458984,4.668333530426,NS,Sprinter,1257
Schiphol Airport,52.30944442749,4.7619442939758,Geldermalsen,51.88301,5.27127,NS,Intercity,8
Dordrecht,51.807220458984,4.668333530426,Leiden Centraal,52.166110992432,4.4816665649414,NS,Sprinter,2
Nijmegen,51.843612670898,5.8522224426269,Den Helder,52.955276489258,4.7611112594605,NS,Intercity,10196
Kampen Zuid,52.5331,5.91309,Lelystad Centrum,52.507778167725,5.4727778434753,NS,Extra trein,1
Venlo,51.363609313965,6.1727776527405,Helmond 't Hout,51.46794,5.63085,NS,Intercity,1
Arnhem Centraal,51.985000610352,5.8991665840149,Dordrecht,51.807220458984,4.668333530426,NS,Sprinter,6650
Wijchen,51.811668395996,5.730833530426,Oss,51.765556335449,5.5322222709656,NS,Stopbus ipv trein,46
Zwolle,52.504722595215,6.0919442176819,Wijchen,51.811668395996,5.730833530426,NS,Intercity,2
Arnhem Centraal,51.985000610352,5.8991665840149,Den Haag Moerwijk,52.053890228271,4.3086109161377,NS,Intercity,1
Overveen,52.391109466553,4.6061110496521,Haarlem,52.38777923584,4.6383333206177,NS,Intercity,1
Zutphen,52.145278930664,6.1941666603088,Tilburg Universiteit,51.564985,5.051778,NS,Intercity,1
Amersfoort Schothorst,52.174822137451,5.4038887023926,Amsterdam Zuid,52.338889,4.872356,NS,Intercity,37
Dordrecht,51.807220458984,4.668333530426,Haarlem,52.38777923584,4.6383333206177,NS,Sprinter,84
Weert,51.248611450195,5.7036108970642,Enkhuizen,52.699165344238,5.286388874054,NS,Intercity,81
Lelystad Centrum,52.507778167725,5.4727778434753,Amsterdam Centraal,52.378887176514,4.9002776145935,NS,Sprinter,321
Dieren,52.044998168945,6.1030554771423,Arnhem Centraal,51.985000610352,5.8991665840149,NS,Snelbus ipv trein,108
Utrecht Lunetten,52.06555557251,5.144166469574,Eindhoven Centraal,51.443332672119,5.4813890457153,NS,Extra trein,3
Den Helder,52.955276489258,4.7611112594605,Den Haag Centraal,52.080276489258,4.3249998092651,NS,Sprinter,1
Maastricht,50.850276947021,5.7055554389954,Boxtel,51.58433,5.31912,NS,Intercity,6
Amersfoort Schothorst,52.174822137451,5.4038887023926,Zwolle,52.504722595215,6.0919442176819,NS,Snelbus ipv trein,5
Nijmegen,51.843612670898,5.8522224426269,Utrecht Centraal,52.088890075684,5.1102776527405,NS,Intercity,775
Zwolle,52.504722595215,6.0919442176819,Nijmegen Lent,51.863154,5.859625,NS,Intercity,1
Roosendaal,51.540279388428,4.4583334922791,Arnhem Centraal,51.985000610352,5.8991665840149,NS,Extra trein,1
Arnhem Centraal,51.985000610352,5.8991665840149,Driebergen-Zeist,52.065277099609,5.25861120224,NS,Intercity,31
Zaandam Kogerveld,52.456665039062,4.8202776908875,Hoorn,52.644721984863,5.0555553436279,NS,Extra trein,1
Zaandam,52.438888549805,4.8136110305786,Maastricht,50.850276947021,5.7055554389954,NS,Intercity,154
Rotterdam Centraal,51.92499923706,4.468888759613,Breda,51.595554351807,4.7800002098083,NS,Sprinter,1
Eindhoven Centraal,51.443332672119,5.4813890457153,Tilburg,51.560554504395,5.0836110115051,NS,Stopbus ipv trein,353
Tilburg Universiteit,51.564985,5.051778,Tilburg,51.560554504395,5.0836110115051,NS,Speciale Trein,1
Amsterdam Zuid,52.338889,4.872356,Rotterdam Lombardijen,51.880001068115,4.531388759613,NS,Intercity,1
Voorhout,52.224445343018,4.4844446182251,Leiden Centraal,52.166110992432,4.4816665649414,NS,Intercity,1
Almelo,52.358055114746,6.6538887023926,Mariënberg,52.50944519043,6.5752778053284,Blauwnet,Stopbus ipv trein,535
Amsterdam Zuid,52.338889,4.872356,Diemen Zuid,52.330276489258,4.9558334350586,NS,Stopbus ipv trein,72
Lelystad Centrum,52.507778167725,5.4727778434753,Zaandam,52.438888549805,4.8136110305786,NS,Sprinter,32
Nunspeet,52.370834350586,5.7852778434753,Zwolle,52.504722595215,6.0919442176819,NS,Intercity,2
Gilze-Rijen,51.583610534668,4.9261112213135,Eindhoven Centraal,51.443332672119,5.4813890457153,NS,Intercity,2
Rotterdam Centraal,51.92499923706,4.468888759613,Den Haag HS,52.069721221924,4.3225002288818,NS,Snelbus ipv trein,135
Almere Centrum,52.37503,5.21764,Hoofddorp,52.293334960938,4.7005553245544,NS,Sprinter,43
Lelystad Centrum,52.507778167725,5.4727778434753,Den Haag Centraal,52.080276489258,4.3249998092651,NS,Sprinter,2048
Zwolle,52.504722595215,6.0919442176819,Putten,52.264999389648,5.5752778053284,NS,Stopbus ipv trein,119
Amsterdam Amstel,52.346668243408,4.9177780151367,Amsterdam Centraal,52.378887176514,4.9002776145935,NS,Metro ipv trein,742
Baarn,52.208332061768,5.2808332443237,Weesp,52.3127784729,5.0430555343628,NS,Stopbus ipv trein,370
Abcoude,52.2785,4.977,Utrecht Centraal,52.088890075684,5.1102776527405,NS,Intercity,2
Sittard,51.001667022705,5.8586111068726,Weert,51.248611450195,5.7036108970642,NS,Metro ipv trein,34
Tiel,51.889446258545,5.4222221374512,Geldermalsen,51.88301,5.27127,NS,Extra trein,1
Heerlen,50.89083480835,5.9749999046326,Maastricht,50.850276947021,5.7055554389954,Arriva,Snelbus ipv trein,2464
Barneveld Zuid,52.128853,5.60246,Ede-Wageningen,52.027778625488,5.6730556488037,RRReis,Stopbus ipv trein,115
Den Haag Centraal,52.080276489258,4.3249998092651,Almere Centrum,52.37503,5.21764,NS,Sprinter,697
Amsterdam RAI,52.337223052979,4.8902778625488,Lelystad Centrum,52.507778167725,5.4727778434753,NS,Sprinter,464
Tilburg,51.560554504395,5.0836110115051,Nijmegen,51.843612670898,5.8522224426269,NS,Sprinter,83
's-Hertogenbosch,51.69048,5.29362,Arnhem Centraal,51.985000610352,5.8991665840149,NS,Intercity,23
Zwolle,52.504722595215,6.0919442176819,Mariënberg,52.50944519043,6.5752778053284,Blauwnet,Sneltrein,1
Almere Centrum,52.37503,5.21764,Rotterdam Centraal,51.92499923706,4.468888759613,NS,Intercity,9
Maastricht,50.850276947021,5.7055554389954,Sittard,51.001667022705,5.8586111068726,Arriva,Stopbus ipv trein,185
Boxtel,51.58433,5.31912,Utrecht Centraal,52.088890075684,5.1102776527405,NS,Intercity,4
Duivendrecht,52.323333740234,4.9363889694214,Diemen Zuid,52.330276489258,4.9558334350586,NS,Intercity,1
Deventer,52.257499694824,6.1605553627014,Amersfoort Centraal,52.153888702393,5.3705554008484,NS,Snelbus ipv trein,3
Dordrecht,51.807220458984,4.668333530426,Den Haag Mariahoeve,52.090557098389,4.3694443702698,NS,Intercity,79
Amsterdam Centraal,52.378887176514,4.9002776145935,Baarn,52.208332061768,5.2808332443237,NS,Sprinter,155
Dordrecht,51.807220458984,4.668333530426,Rijswijk,52.039722442627,4.3191666603088,NS,Intercity,1
Boxtel,51.58433,5.31912,Weert,51.248611450195,5.7036108970642,NS,Sprinter,408
Leeuwarden,53.195835113525,5.7922220230103,Leiden Centraal,52.166110992432,4.4816665649414,NS,Intercity,90
Akkrum,53.046390533447,5.843611240387,Leeuwarden,53.195835113525,5.7922220230103,NS,Intercity,1
Dordrecht,51.807220458984,4.668333530426,Arkel,51.87194442749,4.9927778244019,R-net,Stopbus ipv trein,46
Utrecht Centraal,52.088890075684,5.1102776527405,Nunspeet,52.370834350586,5.7852778434753,NS,Sprinter,278
Geldermalsen,51.88301,5.27127,Leerdam,51.894721984863,5.0913887023926,R-net,Stopbus ipv trein,90
Eindhoven Centraal,51.443332672119,5.4813890457153,Maastricht,50.850276947021,5.7055554389954,NS,Extra trein,1
De Vink,52.147220611572,4.4563889503479,Den Haag Centraal,52.080276489258,4.3249998092651,NS,Extra trein,3
Heerlen,50.89083480835,5.9749999046326,Maastricht,50.850276947021,5.7055554389954,NS,Speciale Trein,1
Nijmegen,51.843612670898,5.8522224426269,Dordrecht,51.807220458984,4.668333530426,NS,Sprinter,4126
Hoorn,52.644721984863,5.0555553436279,Leiden Centraal,52.166110992432,4.4816665649414,NS,Sprinter,87
Sittard,51.001667022705,5.8586111068726,Enkhuizen,52.699165344238,5.286388874054,NS,Intercity,30
Den Haag HS,52.069721221924,4.3225002288818,Tilburg,51.560554504395,5.0836110115051,NS,Intercity,1
Woerden,52.084999084473,4.8936109542847,Utrecht Centraal,52.088890075684,5.1102776527405,NS,Extra trein,6
Emmen,52.790000915527,6.8994445800781,Nieuw Amsterdam,52.718612670898,6.8486108779907,Arriva,Stoptrein,181
Nunspeet,52.370834350586,5.7852778434753,Amsterdam Zuid,52.338889,4.872356,NS,Metro ipv trein,36
Voorhout,52.224445343018,4.4844446182251,Haarlem,52.38777923584,4.6383333206177,NS,Extra trein,1
Enkhuizen,52.699165344238,5.286388874054,Purmerend,52.50305557251,4.9536108970642,NS,Intercity,1
Almere Centrum,52.37503,5.21764,Arnhem Centraal,51.985000610352,5.8991665840149,NS,Intercity,168
Nieuw Vennep,52.258888244629,4.6455554962158,Amsterdam Centraal,52.378887176514,4.9002776145935,NS,Extra trein,1
's-Hertogenbosch,51.69048,5.29362,Den Helder,52.955276489258,4.7611112594605,NS,Intercity,6
Rotterdam Centraal,51.92499923706,4.468888759613,Roosendaal,51.540279388428,4.4583334922791,NS,Sprinter,431
Gilze-Rijen,51.583610534668,4.9261112213135,Tilburg,51.560554504395,5.0836110115051,NS,Intercity,1
Heerhugowaard,52.669723510742,4.8227777481079,Amsterdam Centraal,52.378887176514,4.9002776145935,NS,Sprinter,247
Hoorn,52.644721984863,5.0555553436279,Utrecht Centraal,52.088890075684,5.1102776527405,NS,Sprinter,2
Schiphol Airport,52.30944442749,4.7619442939758,Den Haag Mariahoeve,52.090557098389,4.3694443702698,NS,Sprinter,1
Barneveld Centrum,52.139999389648,5.590277671814,Amersfoort Centraal,52.153888702393,5.3705554008484,RRReis,Stopbus ipv trein,218
Arnhem Centraal,51.985000610352,5.8991665840149,Tiel,51.889446258545,5.4222221374512,Arriva,Stoptrein,9366
Oss,51.765556335449,5.5322222709656,Nijmegen,51.843612670898,5.8522224426269,NS,Intercity,4
Schiedam Centrum,51.921243812803,4.4089937210083,Rotterdam Centraal,51.92499923706,4.468888759613,NS Int,Intercity direct,1
Maastricht,50.850276947021,5.7055554389954,Heerlen,50.89083480835,5.9749999046326,Arriva,Stoptrein,138
Almere Oostvaarders,52.403331756592,5.3005557060242,Hoofddorp,52.293334960938,4.7005553245544,NS,Sprinter,74
Baarn,52.208332061768,5.2808332443237,Hilversum,52.225833892822,5.1819443702698,NS,Extra trein,1
Akkrum,53.046390533447,5.843611240387,Grou-Jirnsum,53.088890075684,5.8225002288818,NS,Stopbus ipv trein,1088
Groningen,53.210556030273,6.5647220611572,Winschoten,53.1392377,7.035101,Arriva,Sneltrein,3422
Swalmen,51.23582,6.03228,Roermond,51.193054199219,5.9941668510437,Arriva,Stopbus ipv trein,140
Delfzijl,53.3336625,6.9240797,Appingedam,53.3258135,6.8619577,Arriva,Stopbus ipv trein,1
Den Helder,52.955276489258,4.7611112594605,Nijmegen Lent,51.863154,5.859625,NS,Intercity,1
Amersfoort Vathorst,52.192779541016,5.4338889122009,Amsterdam Centraal,52.378887176514,4.9002776145935,NS,Sprinter,2793
Kampen Zuid,52.5331,5.91309,Leiden Centraal,52.166110992432,4.4816665649414,NS,Intercity,8
Roosendaal,51.540279388428,4.4583334922791,Dordrecht,51.807220458984,4.668333530426,NS,Extra trein,1
Breukelen,52.17149,4.9906,Woerden,52.084999084473,4.8936109542847,NS,Extra trein,1
Den Haag HS,52.069721221924,4.3225002288818,Schiphol Airport,52.30944442749,4.7619442939758,NS,Snelbus ipv trein,8
Susteren,51.061389923096,5.8630557060242,Maastricht,50.850276947021,5.7055554389954,NS,Extra trein,1
Zaandam,52.438888549805,4.8136110305786,Amsterdam Centraal,52.378887176514,4.9002776145935,NS,Extra trein,2
Soest,52.173332214355,5.3099999427795,Amsterdam Zuid,52.338889,4.872356,NS,Sprinter,1
Arnhem Centraal,51.985000610352,5.8991665840149,Deventer,52.257499694824,6.1605553627014,NS,Intercity,8
Barneveld Centrum,52.139999389648,5.590277671814,Ede-Wageningen,52.027778625488,5.6730556488037,RRReis,Stopbus ipv trein,5
Ede-Wageningen,52.027778625488,5.6730556488037,Nijmegen,51.843612670898,5.8522224426269,NS,Extra trein,1
Schiphol Airport,52.30944442749,4.7619442939758,Nijmegen,51.843612670898,5.8522224426269,NS,Intercity,5804
Nijmegen Dukenburg,51.824165344238,5.7955555915833,Nijmegen,51.843612670898,5.8522224426269,NS,Extra trein,1
Heiloo,52.599445343018,4.7005553245544,Amsterdam Centraal,52.378887176514,4.9002776145935,NS,Extra trein,1
Amsterdam Muiderpoort,52.360553741455,4.9311113357544,Amsterdam Science Park,52.35526,4.94651,NS,Stopbus ipv trein,136
Hoofddorp,52.293334960938,4.7005553245544,Amsterdam Sloterdijk,52.388889312744,4.8377776145935,NS,Stopbus ipv trein,67
